City_ID,City,Country,Date,Lat,Lng,Max Temp,Humidity,Cloudiness,Wind Speed,Current Description,Rain inches (last 3 hrs),Snow inches (last 3 hrs)
0,Pangoa,PE,2020-04-07 00:53:22,-12.12,-73.0,73.38,70,6,0.81,clear sky,0.0,0.0
1,Rikitea,PF,2020-04-07 00:53:22,-23.12,-134.97,76.37,67,81,7.47,broken clouds,0.0,0.0
2,Cherskiy,RU,2020-04-07 00:53:23,68.75,161.3,18.84,97,100,15.73,light snow,0.0,0.05236220472440945
3,Hermanus,ZA,2020-04-07 00:53:23,-34.42,19.23,57.99,66,72,10.0,light rain,0.019291338582677165,0.0
4,Cape Town,ZA,2020-04-07 00:50:45,-33.93,18.42,55.99,62,75,3.36,broken clouds,0.0,0.0
5,Cananeia,BR,2020-04-07 00:53:23,-25.01,-47.93,71.65,93,96,5.88,light rain,0.1125984251968504,0.0
6,Usman,RU,2020-04-07 00:53:24,52.05,39.73,30.2,42,91,4.47,overcast clouds,0.0,0.0
7,Fortuna,US,2020-04-07 00:53:24,40.6,-124.16,55.4,76,90,10.29,overcast clouds,0.0,0.0
8,Codrington,AU,2020-04-07 00:53:24,-38.27,141.97,55.38,64,100,5.1,overcast clouds,0.0,0.0
9,Kondinskoye,RU,2020-04-07 00:53:24,59.65,67.41,27.32,97,100,12.08,light snow,0.0,0.01141732283464567
10,Butaritari,KI,2020-04-07 00:53:24,3.07,172.79,82.85,70,100,2.46,overcast clouds,0.0,0.0
11,Salina,US,2020-04-07 00:52:47,38.84,-97.61,75.2,53,1,17.22,clear sky,0.0,0.0
12,Santa Rosa,PH,2020-04-07 00:53:24,14.31,121.11,88.0,66,20,4.7,few clouds,0.0,0.0
13,Severo-Kurilsk,RU,2020-04-07 00:53:24,50.68,156.12,34.23,90,99,35.68,light snow,0.0,0.009448818897637795
14,College,US,2020-04-07 00:53:25,64.86,-147.8,17.6,66,90,10.29,light snow,0.0,0.0
15,Vila Velha,BR,2020-04-07 00:53:25,-20.33,-40.29,78.8,78,75,6.93,broken clouds,0.0,0.0
16,Petropavlovsk-Kamchatskiy,RU,2020-04-07 00:53:25,53.05,158.65,35.6,47,99,6.71,overcast clouds,0.0,0.0
17,Bage,BR,2020-04-07 00:53:25,-31.33,-54.11,52.0,61,2,15.01,clear sky,0.0,0.0
18,Ushuaia,AR,2020-04-07 00:53:25,-54.8,-68.3,50.0,66,75,13.87,broken clouds,0.0,0.0
19,Mataura,NZ,2020-04-07 00:52:10,-46.19,168.86,57.0,72,85,15.99,light rain,0.021653543307086617,0.0
20,Lebu,CL,2020-04-07 00:53:25,-37.62,-73.65,54.7,66,0,18.34,clear sky,0.0,0.0
21,Arraial Do Cabo,BR,2020-04-07 00:53:26,-22.97,-42.03,77.0,83,11,13.87,few clouds,0.0,0.0
22,Ambunti,PG,2020-04-07 00:53:26,-4.24,142.84,79.27,82,100,2.33,overcast clouds,0.0,0.0
23,Mandalgovi,MN,2020-04-07 00:53:27,45.76,106.27,32.92,40,67,22.1,broken clouds,0.0,0.0
24,Roma,US,2020-04-07 00:50:54,43.21,-75.46,48.2,33,1,8.05,clear sky,0.0,0.0
25,Busselton,AU,2020-04-07 00:50:23,-33.65,115.33,72.0,33,1,15.64,clear sky,0.0,0.0
26,Puerto Escondido,MX,2020-04-07 00:53:27,15.85,-97.07,82.4,78,5,9.17,clear sky,0.0,0.0
27,Meulaboh,ID,2020-04-07 00:53:27,4.14,96.13,77.29,85,97,5.06,overcast clouds,0.0,0.0
28,Constitucion,CL,2020-04-07 00:53:27,-35.33,-72.42,57.09,50,0,10.89,clear sky,0.0,0.0
29,Aksu,CN,2020-04-07 00:53:27,41.12,80.26,53.02,26,31,0.81,scattered clouds,0.0,0.0
30,Tokmak,UA,2020-04-07 00:53:27,47.25,35.71,40.66,64,1,6.93,clear sky,0.0,0.0
31,Santiago Del Estero,AR,2020-04-07 00:51:23,-27.8,-64.26,68.5,38,23,8.21,few clouds,0.0,0.0
32,Albany,US,2020-04-07 00:51:16,42.6,-73.97,53.6,17,20,16.11,few clouds,0.0,0.0
33,Qaanaaq,GL,2020-04-07 00:53:28,77.48,-69.36,6.75,75,1,3.89,clear sky,0.0,0.0
34,Muisne,EC,2020-04-07 00:53:28,0.6,-80.03,77.72,79,43,5.12,scattered clouds,0.0,0.0
35,Korla,CN,2020-04-07 00:53:28,41.76,86.15,59.0,54,24,3.33,few clouds,0.0,0.0
36,Mercedes,AR,2020-04-07 00:49:50,-34.65,-59.43,55.99,78,0,7.23,clear sky,0.0,0.0
37,Cozumel,MX,2020-04-07 00:53:28,20.51,-86.95,82.4,74,20,10.29,few clouds,0.0,0.0
38,Mitsamiouli,KM,2020-04-07 00:53:28,-11.38,43.28,83.91,65,27,5.06,scattered clouds,0.0,0.0
39,Ponta Do Sol,PT,2020-04-07 00:52:28,32.67,-17.1,66.2,82,75,1.12,broken clouds,0.0,0.0
40,Batagay-Alyta,RU,2020-04-07 00:53:29,67.8,130.41,20.89,88,97,7.45,overcast clouds,0.0,0.0
41,Buin,CL,2020-04-07 00:53:29,-33.73,-70.75,73.4,27,0,6.93,clear sky,0.0,0.0
42,Kapaa,US,2020-04-07 00:52:50,22.08,-159.32,82.4,58,1,17.22,clear sky,0.0,0.0
43,Sao Felix Do Xingu,BR,2020-04-07 00:53:29,-6.64,-51.99,75.94,87,96,2.1,light rain,0.016929133858267716,0.0
44,Hobart,AU,2020-04-07 00:53:12,-42.88,147.33,57.99,58,20,13.87,few clouds,0.0,0.0
45,Atuona,PF,2020-04-07 00:50:09,-9.8,-139.03,82.56,76,5,16.04,light rain,0.011023622047244096,0.0
46,Lahij,YE,2020-04-07 00:53:29,13.17,44.58,76.66,46,0,4.9,clear sky,0.0,0.0
47,Pemangkat,ID,2020-04-07 00:53:29,1.17,108.97,77.4,88,52,4.65,broken clouds,0.0,0.0
48,Mar Del Plata,AR,2020-04-07 00:52:42,-38.0,-57.56,57.0,76,40,4.7,scattered clouds,0.0,0.0
49,Aykhal,RU,2020-04-07 00:49:16,66.0,111.5,32.0,87,67,11.18,broken clouds,0.0,0.0
50,Wooster,US,2020-04-07 00:51:21,40.81,-81.94,60.8,54,20,2.46,few clouds,0.0,0.0
51,Nhulunbuy,AU,2020-04-07 00:53:29,-12.23,136.77,86.0,70,75,10.29,shower rain,0.0,0.0
52,East London,ZA,2020-04-07 00:53:30,-33.02,27.91,62.73,56,76,21.32,broken clouds,0.0,0.0
53,Thompson,CA,2020-04-07 00:53:30,55.74,-97.86,24.8,68,75,9.17,broken clouds,0.0,0.0
54,Jamestown,US,2020-04-07 00:50:43,42.1,-79.24,48.2,23,90,6.93,overcast clouds,0.0,0.0
55,Gyanpur,IN,2020-04-07 00:53:30,25.35,82.47,75.99,23,0,5.3,clear sky,0.0,0.0
56,Itarema,BR,2020-04-07 00:53:30,-2.92,-39.92,79.25,87,95,6.55,light rain,0.010629921259842521,0.0
57,Lorengau,PG,2020-04-07 00:53:30,-2.02,147.27,82.67,77,91,5.97,moderate rain,0.14133858267716537,0.0
58,Bluff,NZ,2020-04-07 00:53:31,-46.6,168.33,57.0,72,73,15.99,light rain,0.02716535433070866,0.0
59,Mao,ES,2020-04-07 00:53:31,39.89,4.27,51.8,87,33,3.36,scattered clouds,0.0,0.0
60,Vaini,TO,2020-04-07 00:53:31,-21.2,-175.2,78.8,78,90,8.05,light intensity drizzle,0.0,0.0
61,Chapais,CA,2020-04-07 00:53:31,49.78,-74.85,28.4,58,90,4.7,overcast clouds,0.0,0.0
62,Port Alfred,ZA,2020-04-07 00:53:08,-33.59,26.89,59.83,59,49,24.81,scattered clouds,0.0,0.0
63,Egvekinot,RU,2020-04-07 00:53:31,66.32,-179.17,2.01,83,16,3.91,few clouds,0.0,0.0
64,Sitka,US,2020-04-07 00:53:31,57.05,-135.33,35.6,80,75,17.22,light rain,0.0,0.0
65,Kuching,MY,2020-04-07 00:53:31,1.55,110.33,78.8,94,20,1.3,few clouds,0.0,0.0
66,Pangnirtung,CA,2020-04-07 00:53:31,66.15,-65.71,13.08,80,5,6.82,clear sky,0.0,0.0
67,Cabo San Lucas,MX,2020-04-07 00:53:31,22.89,-109.91,75.2,47,90,12.75,overcast clouds,0.0,0.0
68,Along,IN,2020-04-07 00:53:31,28.17,94.77,61.3,58,45,4.25,scattered clouds,0.0,0.0
69,Talara,PE,2020-04-07 00:53:31,-4.58,-81.27,76.55,71,17,10.36,few clouds,0.0,0.0
70,Nabire,ID,2020-04-07 00:53:32,-3.37,135.48,82.36,73,95,5.97,light rain,0.08818897637795277,0.0
71,Cockburn Town,TC,2020-04-07 00:53:32,21.46,-71.14,76.48,70,0,13.67,clear sky,0.0,0.0
72,Chuy,UY,2020-04-07 00:51:05,-33.7,-53.46,58.06,58,1,16.22,clear sky,0.0,0.0
73,Aklavik,CA,2020-04-07 00:53:32,68.22,-135.01,28.4,50,75,11.41,broken clouds,0.0,0.0
74,Noyabrsk,RU,2020-04-07 00:53:32,63.2,75.45,32.9,94,100,18.12,snow,0.0,0.07244094488188978
75,Batemans Bay,AU,2020-04-07 00:53:32,-35.72,150.18,69.01,50,59,2.15,broken clouds,0.0,0.0
76,Torbay,CA,2020-04-07 00:53:32,47.67,-52.73,32.0,80,90,13.87,light snow,0.0,0.0
77,Kyaikto,MM,2020-04-07 00:53:32,17.3,97.02,75.83,89,43,3.56,scattered clouds,0.0,0.0
78,Tasiilaq,GL,2020-04-07 00:53:32,65.61,-37.64,28.4,100,100,8.95,light snow,0.0,0.0
79,Vardo,NO,2020-04-07 00:53:33,70.37,31.11,30.69,96,99,21.18,light snow,0.0,0.006692913385826772
80,Puerto Ayora,EC,2020-04-07 00:53:33,-0.74,-90.35,82.4,83,20,10.29,few clouds,0.0,0.0
81,Sremski Karlovci,RS,2020-04-07 00:53:33,45.2,19.93,44.01,38,0,6.93,clear sky,0.0,0.0
82,Carauari,BR,2020-04-07 00:53:33,-4.88,-66.9,76.84,92,98,2.21,light rain,0.006299212598425198,0.0
83,Kindu,CD,2020-04-07 00:53:33,-2.95,25.95,70.57,86,99,2.64,light rain,0.09488188976377954,0.0
84,Kieta,PG,2020-04-07 00:53:33,-6.22,155.63,85.37,60,82,2.15,broken clouds,0.0,0.0
85,Kodiak,US,2020-04-07 00:53:33,57.79,-152.41,37.4,32,1,9.17,clear sky,0.0,0.0
86,Camacha,PT,2020-04-07 00:53:33,33.08,-16.33,66.2,93,75,6.93,broken clouds,0.0,0.0
87,Iacu,BR,2020-04-07 00:53:34,-12.77,-40.21,74.03,82,53,4.61,broken clouds,0.0,0.0
88,Punta Arenas,CL,2020-04-07 00:52:33,-53.15,-70.92,51.8,71,100,16.11,overcast clouds,0.0,0.0
89,Bengkulu,ID,2020-04-07 00:53:34,-3.8,102.27,77.54,81,96,6.2,light rain,0.017716535433070866,0.0
90,Araceli,PH,2020-04-07 00:53:34,10.55,119.99,81.9,73,13,13.87,few clouds,0.0,0.0
91,Provideniya,RU,2020-04-07 00:53:34,64.38,-173.3,10.4,60,44,2.24,scattered clouds,0.0,0.0
92,El Paso,US,2020-04-07 00:50:32,31.76,-106.49,73.4,17,90,12.75,overcast clouds,0.0,0.0
93,Ilebo,CD,2020-04-07 00:53:35,-4.32,20.58,72.68,73,21,1.3,few clouds,0.0,0.0
94,Mount Gambier,AU,2020-04-07 00:53:35,-37.83,140.77,55.4,71,90,4.7,overcast clouds,0.0,0.0
95,Sao Filipe,CV,2020-04-07 00:53:35,14.9,-24.5,73.4,71,0,11.92,clear sky,0.0,0.0
96,Lexington Park,US,2020-04-07 00:53:35,38.27,-76.45,59.0,62,20,6.93,few clouds,0.0,0.0
97,Beyneu,KZ,2020-04-07 00:53:35,45.32,55.2,38.35,75,23,21.41,few clouds,0.0,0.0
98,Morondava,MG,2020-04-07 00:53:35,-20.28,44.28,76.48,82,12,5.12,few clouds,0.0,0.0
99,Kichera,RU,2020-04-07 00:53:35,55.94,110.1,32.25,69,0,4.97,clear sky,0.0,0.0
100,Kota Kinabalu,MY,2020-04-07 00:53:35,5.97,116.07,84.99,83,20,3.36,few clouds,0.0,0.0
101,Caxito,AO,2020-04-07 00:53:35,-8.58,13.66,80.6,83,40,8.05,scattered clouds,0.0,0.0
102,Sulzbach,DE,2020-04-07 00:53:35,49.3,7.07,50.0,75,0,1.12,clear sky,0.0,0.0
103,Gornyy,RU,2020-04-07 00:53:36,55.12,83.91,34.3,92,100,6.49,overcast clouds,0.0,0.0
104,Waingapu,ID,2020-04-07 00:53:36,-9.66,120.26,82.44,72,99,3.38,overcast clouds,0.0,0.0
105,Tateyama,JP,2020-04-07 00:53:36,34.98,139.87,57.99,54,75,12.75,broken clouds,0.0,0.0
106,Matagami,CA,2020-04-07 00:53:36,49.75,-77.63,32.0,96,1,4.7,clear sky,0.0,0.0
107,Nuevo Progreso,MX,2020-04-07 00:53:36,23.17,-97.95,80.01,71,40,1.01,scattered clouds,0.0,0.0
108,Manta,EC,2020-04-07 00:50:07,-0.95,-80.73,78.8,88,75,2.24,broken clouds,0.0,0.0
109,Tuktoyaktuk,CA,2020-04-07 00:53:36,69.45,-133.04,23.0,85,75,16.11,broken clouds,0.0,0.0
110,Seydi,TM,2020-04-07 00:53:36,39.48,62.91,61.81,44,20,12.53,few clouds,0.0,0.0
111,Ribeira Grande,PT,2020-04-07 00:53:30,38.52,-28.7,63.41,90,85,14.74,overcast clouds,0.0,0.0
112,Guerrero Negro,MX,2020-04-07 00:53:36,27.98,-114.06,63.75,57,96,15.59,overcast clouds,0.0,0.0
113,Castro,BR,2020-04-07 00:53:36,-24.79,-50.01,63.99,71,91,7.92,moderate rain,0.3937007874015748,0.0
114,Saldanha,ZA,2020-04-07 00:53:37,-33.01,17.94,48.2,87,15,1.12,few clouds,0.0,0.0
115,Lasa,IT,2020-04-07 00:53:37,46.62,10.7,42.01,74,5,5.82,clear sky,0.0,0.0
116,Klaksvik,FO,2020-04-07 00:53:37,62.23,-6.59,41.0,75,14,3.36,few clouds,0.0,0.0
117,Souillac,MU,2020-04-07 00:53:38,-20.52,57.52,78.01,78,75,19.46,broken clouds,0.0,0.0
118,Yuxia,CN,2020-04-07 00:53:38,34.06,108.63,59.0,71,99,2.24,overcast clouds,0.0,0.0
119,Maple Creek,CA,2020-04-07 00:53:38,49.92,-109.48,39.49,49,35,8.32,scattered clouds,0.0,0.0
120,Saint-Augustin,CA,2020-04-07 00:53:38,51.23,-58.65,29.14,97,100,6.35,light snow,0.0,0.05472440944881889
121,Devonport,AU,2020-04-07 00:53:39,-41.17,146.35,60.01,61,5,3.0,clear sky,0.0,0.0
122,Piacabucu,BR,2020-04-07 00:53:39,-10.41,-36.43,79.9,85,12,5.91,light rain,0.008661417322834646,0.0
123,Dikson,RU,2020-04-07 00:53:07,73.51,80.55,1.17,94,91,11.39,overcast clouds,0.0,0.0
124,Emerald,AU,2020-04-07 00:53:39,-23.53,148.17,79.0,39,87,9.17,overcast clouds,0.0,0.0
125,Avarua,CK,2020-04-07 00:52:28,-21.21,-159.78,84.2,79,75,6.93,broken clouds,0.0,0.0
126,Knysna,ZA,2020-04-07 00:53:39,-34.04,23.05,51.8,57,63,13.87,broken clouds,0.0,0.0
127,Barrow,US,2020-04-07 00:53:39,71.29,-156.79,8.6,78,90,17.22,light snow,0.0,0.0
128,Harlow,GB,2020-04-07 00:53:39,51.78,0.11,48.99,75,3,2.24,clear sky,0.0,0.0
129,Makakilo City,US,2020-04-07 00:53:40,21.35,-158.09,84.2,83,90,9.17,overcast clouds,0.0,0.0
130,Kita,ML,2020-04-07 00:53:40,13.03,-9.49,83.91,13,0,2.44,clear sky,0.0,0.0
131,Ancud,CL,2020-04-07 00:53:40,-41.87,-73.82,42.8,75,47,5.82,scattered clouds,0.0,0.0
132,Chazuta,PE,2020-04-07 00:53:40,-6.57,-76.14,78.33,75,32,0.51,light rain,0.01968503937007874,0.0
133,Tarakan,ID,2020-04-07 00:53:40,3.3,117.63,79.29,78,62,2.98,broken clouds,0.0,0.0
134,Navalmoral De La Mata,ES,2020-04-07 00:53:40,39.89,-5.54,53.01,94,85,4.38,light rain,0.03818897637795276,0.0
135,Gat,IL,2020-04-07 00:53:40,31.61,34.76,61.0,82,40,4.7,scattered clouds,0.0,0.0
136,Yangambi,CD,2020-04-07 00:53:40,0.81,24.43,72.3,84,99,0.74,light rain,0.019291338582677165,0.0
137,Pamekasan,ID,2020-04-07 00:50:16,-7.16,113.47,80.44,81,93,2.73,overcast clouds,0.0,0.0
138,Kabare,CD,2020-04-07 00:53:41,-2.47,28.82,61.65,59,100,0.31,light rain,0.042913385826771656,0.0
139,Lavrentiya,RU,2020-04-07 00:53:41,65.58,-171.0,7.45,83,95,2.53,overcast clouds,0.0,0.0
140,Ust-Karsk,RU,2020-04-07 00:53:41,52.7,118.81,35.6,65,2,3.51,clear sky,0.0,0.0
141,Khatanga,RU,2020-04-07 00:53:41,71.97,102.5,24.28,96,99,4.14,overcast clouds,0.0,0.0
142,Auki,SB,2020-04-07 00:51:45,-8.77,160.7,84.29,73,98,5.68,light rain,0.03582677165354331,0.0
143,Chabahar,IR,2020-04-07 00:53:41,25.29,60.64,77.88,60,69,9.24,broken clouds,0.0,0.0
144,Belawan,ID,2020-04-07 00:53:41,3.78,98.68,77.0,94,40,2.24,scattered clouds,0.0,0.0
145,Abu Kamal,SY,2020-04-07 00:53:41,34.45,40.92,63.55,51,76,8.5,broken clouds,0.0,0.0
146,Trairi,BR,2020-04-07 00:53:42,-3.28,-39.27,80.35,86,82,7.31,light rain,0.007086614173228346,0.0
147,Florianopolis,BR,2020-04-07 00:53:35,-27.61,-48.5,70.0,68,40,4.7,scattered clouds,0.0,0.0
148,Dingle,PH,2020-04-07 00:53:42,11.0,122.67,81.01,70,1,8.12,clear sky,0.0,0.0
149,Laguna Seca,HN,2020-04-07 00:53:42,14.7,-86.1,83.57,31,0,5.28,clear sky,0.0,0.0
150,Palmer,US,2020-04-07 00:53:42,42.16,-72.33,55.99,22,20,4.7,few clouds,0.0,0.0
151,San Vicente,AR,2020-04-07 00:53:42,-26.62,-54.13,62.11,84,63,4.99,broken clouds,0.0,0.0
152,Acajutla,SV,2020-04-07 00:53:42,13.59,-89.83,78.01,83,5,1.99,clear sky,0.0,0.0
153,Saint George,US,2020-04-07 00:51:47,37.1,-113.58,64.99,31,1,12.75,clear sky,0.0,0.0
154,Vanimo,PG,2020-04-07 00:53:42,-2.67,141.3,82.53,74,99,7.27,light rain,0.01889763779527559,0.0
155,Kahului,US,2020-04-07 00:53:42,20.89,-156.47,82.4,58,40,9.17,scattered clouds,0.0,0.0
156,Faanui,PF,2020-04-07 00:53:42,-16.48,-151.75,83.97,72,20,10.8,light rain,0.044094488188976384,0.0
157,Carnarvon,AU,2020-04-07 00:53:43,-24.87,113.63,75.2,78,13,12.75,few clouds,0.0,0.0
158,Bredasdorp,ZA,2020-04-07 00:53:43,-34.53,20.04,57.99,58,43,12.75,light rain,0.00984251968503937,0.0
159,Ati,TD,2020-04-07 00:53:43,13.22,18.34,87.1,11,6,4.79,clear sky,0.0,0.0
160,Albacete,ES,2020-04-07 00:53:43,38.83,-2.0,52.0,93,40,6.93,scattered clouds,0.0,0.0
161,Bambous Virieux,MU,2020-04-07 00:53:08,-20.34,57.76,78.01,78,75,19.46,broken clouds,0.0,0.0
162,Bani Walid,LY,2020-04-07 00:53:43,31.76,13.99,54.91,65,0,4.88,clear sky,0.0,0.0
163,Tessalit,ML,2020-04-07 00:53:43,20.2,1.01,77.41,13,0,14.34,clear sky,0.0,0.0
164,Ubaitaba,BR,2020-04-07 00:53:43,-14.31,-39.32,80.6,88,75,3.36,broken clouds,0.0,0.0
165,Sept-Iles,CA,2020-04-07 00:49:06,50.2,-66.38,37.4,47,75,13.87,broken clouds,0.0,0.0
166,Greenville,US,2020-04-07 00:53:43,35.61,-77.37,64.4,87,1,4.7,clear sky,0.0,0.0
167,Mahebourg,MU,2020-04-07 00:53:43,-20.41,57.7,78.01,78,75,19.46,broken clouds,0.0,0.0
168,Tabou,CI,2020-04-07 00:53:44,4.42,-7.35,80.78,87,23,5.01,light rain,0.046062992125984255,0.0
169,Fukue,JP,2020-04-07 00:53:44,32.69,128.84,59.0,51,55,9.17,broken clouds,0.0,0.0
170,Devgarh,IN,2020-04-07 00:53:44,25.53,73.9,72.84,19,17,5.5,few clouds,0.0,0.0
171,Yellowknife,CA,2020-04-07 00:53:44,62.46,-114.35,28.4,68,75,17.22,broken clouds,0.0,0.0
172,San Policarpo,PH,2020-04-07 00:49:03,12.18,125.51,80.98,75,20,10.09,light rain,0.004724409448818898,0.0
173,Oranjemund,NA,2020-04-07 00:53:44,-28.55,16.43,56.52,83,74,3.69,broken clouds,0.0,0.0
174,Tuatapere,NZ,2020-04-07 00:50:22,-46.13,167.68,57.0,72,46,15.99,light rain,0.03897637795275591,0.0
175,Biryusinsk,RU,2020-04-07 00:53:44,55.96,97.82,31.55,84,0,5.75,clear sky,0.0,0.0
176,Ketchikan,US,2020-04-07 00:53:44,55.34,-131.65,44.6,52,75,23.04,broken clouds,0.0,0.0
177,Fergus Falls,US,2020-04-07 00:53:46,46.28,-96.08,55.4,76,90,11.41,overcast clouds,0.0,0.0
178,Leirvik,NO,2020-04-07 00:53:46,59.78,5.5,44.6,93,99,4.7,light rain,0.021653543307086617,0.0
179,Te Anau,NZ,2020-04-07 00:53:46,-45.42,167.72,56.66,57,54,8.1,light rain,0.01299212598425197,0.0
180,Chokurdakh,RU,2020-04-07 00:53:46,70.63,147.92,1.42,92,33,13.6,scattered clouds,0.0,0.0
181,Swan River,CA,2020-04-07 00:53:46,52.11,-101.27,36.34,84,100,8.55,light rain,0.03149606299212599,0.0
182,Asau,RO,2020-04-07 00:53:46,46.43,26.4,37.99,55,0,4.7,clear sky,0.0,0.0
183,Great Yarmouth,GB,2020-04-07 00:53:46,52.61,1.73,45.0,75,4,2.24,clear sky,0.0,0.0
184,Teknaf,BD,2020-04-07 00:53:47,20.86,92.31,72.55,88,0,2.91,clear sky,0.0,0.0
185,New Norfolk,AU,2020-04-07 00:53:47,-42.78,147.06,57.99,58,20,13.87,few clouds,0.0,0.0
186,Bereda,ES,2020-04-07 00:53:47,43.27,-7.54,57.2,71,100,3.36,light rain,0.018110236220472444,0.0
187,Upernavik,GL,2020-04-07 00:53:47,72.79,-56.15,14.4,91,0,15.14,clear sky,0.0,0.0
188,Camana,PE,2020-04-07 00:53:47,-16.62,-72.71,73.99,74,67,5.19,broken clouds,0.0,0.0
189,Trincomalee,LK,2020-04-07 00:53:47,8.57,81.23,78.46,84,12,3.76,few clouds,0.0,0.0
190,Fakel,RU,2020-04-07 00:53:47,57.63,53.03,23.9,93,6,8.55,clear sky,0.0,0.0
191,Lompoc,US,2020-04-07 00:53:47,34.64,-120.46,60.01,66,20,10.29,few clouds,0.0,0.0
192,Nikolskoye,RU,2020-04-07 00:53:47,59.7,30.79,35.01,86,96,2.24,overcast clouds,0.0,0.0
193,Neuquen,AR,2020-04-07 00:50:02,-38.95,-68.06,53.46,31,0,7.99,clear sky,0.0,0.0
194,Marienburg,PL,2020-04-07 00:53:48,54.04,19.03,53.6,37,0,5.82,clear sky,0.0,0.0
195,Beringovskiy,RU,2020-04-07 00:53:48,63.05,179.32,7.57,84,0,1.16,clear sky,0.0,0.0
196,Naze,JP,2020-04-07 00:53:48,28.37,129.48,66.2,68,75,3.36,broken clouds,0.0,0.0
197,Pedasi,PA,2020-04-07 00:53:48,7.53,-80.03,80.17,83,58,9.33,broken clouds,0.0,0.0
198,Inirida,CO,2020-04-07 00:53:48,3.87,-67.92,77.79,93,100,2.24,light rain,0.009055118110236222,0.0
199,Tilichiki,RU,2020-04-07 00:53:48,60.47,166.1,24.15,95,100,11.52,light snow,0.0,0.009055118110236222
200,Sigli,ID,2020-04-07 00:53:48,5.38,95.96,80.28,73,78,1.41,broken clouds,0.0,0.0
201,Birao,CF,2020-04-07 00:53:48,10.28,22.79,78.33,14,2,3.18,clear sky,0.0,0.0
202,Alyangula,AU,2020-04-07 00:53:48,-13.85,136.42,87.8,66,70,6.93,light rain,0.011023622047244096,0.0
203,Narsaq,GL,2020-04-07 00:53:48,60.92,-46.05,24.8,38,9,6.93,clear sky,0.0,0.0
204,Townsville,AU,2020-04-07 00:53:49,-19.25,146.8,84.2,58,40,11.41,scattered clouds,0.0,0.0
205,Tottori,JP,2020-04-07 00:49:15,35.5,134.23,53.6,37,96,2.24,overcast clouds,0.0,0.0
206,Kajaani,FI,2020-04-07 00:53:49,64.23,27.73,32.0,90,75,12.75,broken clouds,0.0,0.0
207,Neiafu,TO,2020-04-07 00:53:49,-18.65,-173.98,82.4,94,90,8.05,overcast clouds,0.0,0.0
208,The Valley,AI,2020-04-07 00:53:49,18.22,-63.06,82.0,83,40,8.05,scattered clouds,0.0,0.0
209,San Jose,US,2020-04-07 00:50:19,37.34,-121.89,54.0,76,75,4.7,light rain,0.0,0.0
210,Am Timan,TD,2020-04-07 00:53:49,11.03,20.28,83.98,23,0,3.6,clear sky,0.0,0.0
211,Jumla,NP,2020-04-07 00:53:49,29.27,82.18,39.83,25,3,5.59,clear sky,0.0,0.0
212,Saint-Philippe,RE,2020-04-07 00:53:49,-21.36,55.77,77.0,60,3,4.7,light rain,0.016929133858267716,0.0
213,Ambovombe,MG,2020-04-07 00:51:33,-25.17,46.08,71.6,72,12,5.19,few clouds,0.0,0.0
214,Coahuayana,MX,2020-04-07 00:53:50,18.73,-103.68,80.6,54,40,11.41,scattered clouds,0.0,0.0
215,Langsa,ID,2020-04-07 00:53:50,4.47,97.97,75.97,87,100,2.15,overcast clouds,0.0,0.0
216,Namatanai,PG,2020-04-07 00:53:50,-3.67,152.43,83.7,70,71,7.63,light rain,0.011023622047244096,0.0
217,Dubove,UA,2020-04-07 00:53:50,48.17,23.89,45.0,30,0,5.82,clear sky,0.0,0.0
218,Cuamba,MZ,2020-04-07 00:53:50,-14.8,36.54,66.65,69,31,0.87,scattered clouds,0.0,0.0
219,Svetlaya,RU,2020-04-07 00:53:50,46.54,138.33,36.03,90,100,3.89,light snow,0.0,0.03661417322834646
220,Saskylakh,RU,2020-04-07 00:53:50,71.92,114.08,25.41,97,100,8.39,light snow,0.0,0.009448818897637795
221,Ribas Do Rio Pardo,BR,2020-04-07 00:53:50,-20.44,-53.76,77.95,66,42,4.45,light rain,0.040944881889763786,0.0
222,Westerland,DE,2020-04-07 00:53:51,54.91,8.3,48.0,89,58,3.0,light rain,0.023228346456692913,0.0
223,Nome,US,2020-04-07 00:53:51,64.5,-165.41,7.0,77,1,16.11,clear sky,0.0,0.0
224,Hokitika,NZ,2020-04-07 00:53:51,-42.72,170.97,59.63,87,100,6.85,moderate rain,0.3598425196850394,0.0
225,Zhigansk,RU,2020-04-07 00:53:51,66.77,123.37,33.13,95,100,15.28,light snow,0.0,0.011811023622047244
226,Kenai,US,2020-04-07 00:53:51,60.55,-151.26,30.0,39,1,18.34,clear sky,0.0,0.0
227,Sobolevo,RU,2020-04-07 00:53:51,54.43,31.9,36.93,82,1,1.52,clear sky,0.0,0.0
228,Nisia Floresta,BR,2020-04-07 00:53:51,-6.09,-35.21,82.4,78,40,10.29,scattered clouds,0.0,0.0
229,Mossendjo,CG,2020-04-07 00:53:51,-2.95,12.73,70.93,86,100,2.08,overcast clouds,0.0,0.0
230,Beira,MZ,2020-04-07 00:53:51,-19.84,34.84,75.2,100,0,8.05,clear sky,0.0,0.0
231,Holme,DK,2020-04-07 00:53:52,56.11,10.17,50.0,76,2,9.17,clear sky,0.0,0.0
232,Kalmunai,LK,2020-04-07 00:52:11,7.42,81.82,79.36,77,55,1.68,broken clouds,0.0,0.0
233,Gravelbourg,CA,2020-04-07 00:53:52,49.88,-106.55,41.05,49,51,16.69,broken clouds,0.0,0.0
234,Baiyin,CN,2020-04-07 00:53:52,36.56,104.21,41.0,28,100,7.92,overcast clouds,0.0,0.0
235,Hammerfest,NO,2020-04-07 00:53:52,70.66,23.68,33.8,86,100,9.17,drizzle,0.0,0.0
236,Caucaia,BR,2020-04-07 00:51:26,-3.74,-38.65,84.99,79,98,5.82,light rain,0.03385826771653543,0.0
237,Takoradi,GH,2020-04-07 00:53:52,4.88,-1.76,81.72,85,7,5.35,clear sky,0.0,0.0
238,Los Llanos De Aridane,ES,2020-04-07 00:53:52,28.66,-17.92,66.2,77,27,3.36,scattered clouds,0.0,0.0
239,Sola,VU,2020-04-07 00:53:52,-13.88,167.55,84.2,83,90,28.86,overcast clouds,0.0,0.0
240,Dicabisagan,PH,2020-04-07 00:53:52,17.08,122.42,81.07,72,5,9.19,light rain,0.005905511811023622,0.0
241,Esperance,AU,2020-04-07 00:53:52,-33.87,121.9,60.8,87,90,10.29,overcast clouds,0.0,0.0
242,Ingham,US,2020-04-07 00:53:53,42.6,-84.38,55.99,32,90,4.7,overcast clouds,0.0,0.0
243,Hilo,US,2020-04-07 00:51:57,19.73,-155.09,82.4,61,1,16.11,clear sky,0.0,0.0
244,Hailar,CN,2020-04-07 00:53:53,49.2,119.7,34.2,58,0,15.01,clear sky,0.0,0.0
245,Lakes Entrance,AU,2020-04-07 00:53:53,-37.88,147.98,60.01,59,46,1.01,scattered clouds,0.0,0.0
246,Khani,GE,2020-04-07 00:53:53,41.96,42.96,48.2,93,100,1.12,light rain,0.013779527559055118,0.0
247,Taoudenni,ML,2020-04-07 00:53:53,22.68,-3.98,82.0,14,0,16.42,clear sky,0.0,0.0
248,San Patricio,MX,2020-04-07 00:53:53,19.22,-104.7,80.6,78,40,11.41,scattered clouds,0.0,0.0
249,Isangel,VU,2020-04-07 00:53:53,-19.55,169.27,84.2,79,75,9.17,broken clouds,0.0,0.0
250,Kargasok,RU,2020-04-07 00:53:53,59.06,80.86,35.65,96,99,5.7,overcast clouds,0.0,0.0
251,Duluth,US,2020-04-07 00:53:54,46.78,-92.11,46.4,86,90,5.82,overcast clouds,0.0,0.0
252,Kavieng,PG,2020-04-07 00:53:54,-2.57,150.8,83.03,71,42,2.73,scattered clouds,0.0,0.0
253,Kutum,SD,2020-04-07 00:53:54,14.2,24.67,66.88,12,0,3.4,clear sky,0.0,0.0
254,San Carlos De Bariloche,AR,2020-04-07 00:53:55,-41.15,-71.31,50.0,39,16,8.05,few clouds,0.0,0.0
255,Caravelas,BR,2020-04-07 00:53:55,-17.71,-39.25,77.27,77,17,8.23,few clouds,0.0,0.0
256,Cayenne,GF,2020-04-07 00:49:13,4.93,-52.33,80.6,83,40,3.36,scattered clouds,0.0,0.0
257,Atbasar,KZ,2020-04-07 00:53:55,51.8,68.33,41.83,74,100,14.85,light rain,0.021259842519685043,0.0
258,Agirish,RU,2020-04-07 00:53:55,61.92,63.02,21.52,91,0,9.26,clear sky,0.0,0.0
259,Kosamba,IN,2020-04-07 00:53:55,21.48,72.95,74.14,73,9,5.19,clear sky,0.0,0.0
260,Yaan,NG,2020-04-07 00:53:55,7.38,8.57,82.44,68,76,9.31,broken clouds,0.0,0.0
261,Thohoyandou,ZA,2020-04-07 00:53:55,-22.95,30.48,69.28,27,0,4.05,clear sky,0.0,0.0
262,Carutapera,BR,2020-04-07 00:53:55,-1.2,-46.02,80.69,88,100,10.54,light rain,0.010236220472440946,0.0
263,Port Pirie,AU,2020-04-07 00:53:55,-33.18,138.02,66.2,77,97,8.05,overcast clouds,0.0,0.0
264,Ahipara,NZ,2020-04-07 00:53:56,-35.17,173.17,66.79,66,33,6.73,light rain,0.008661417322834646,0.0
265,Mount Isa,AU,2020-04-07 00:51:48,-20.73,139.5,80.6,22,97,8.05,overcast clouds,0.0,0.0
266,Praia Da Vitoria,PT,2020-04-07 00:53:56,38.73,-27.07,62.6,100,90,18.23,mist,0.0,0.0
267,High Level,CA,2020-04-07 00:53:56,58.52,-117.14,32.0,89,90,9.17,overcast clouds,0.0,0.0
268,Parana,AR,2020-04-07 00:53:56,-31.73,-60.52,64.0,41,0,1.99,clear sky,0.0,0.0
269,Broome,US,2020-04-07 00:53:56,42.25,-75.83,48.2,34,1,6.93,clear sky,0.0,0.0
270,Kloulklubed,PW,2020-04-07 00:53:57,7.04,134.26,86.0,66,75,4.7,broken clouds,0.0,0.0
271,Santa Cruz,BO,2020-04-07 00:50:55,-17.8,-63.17,77.0,83,75,6.93,broken clouds,0.0,0.0
272,Yanam,IN,2020-04-07 00:53:57,16.73,82.22,79.14,90,13,4.54,few clouds,0.0,0.0
273,Port Elizabeth,ZA,2020-04-07 00:53:57,-33.92,25.57,59.0,58,40,23.04,scattered clouds,0.0,0.0
274,Sao Joao Da Barra,BR,2020-04-07 00:53:58,-21.64,-41.05,75.31,84,4,12.3,clear sky,0.0,0.0
275,Namibe,AO,2020-04-07 00:53:58,-15.2,12.15,74.03,61,0,5.75,clear sky,0.0,0.0
276,Varhaug,NO,2020-04-07 00:53:58,58.61,5.65,44.6,93,75,8.05,broken clouds,0.0,0.0
277,Vanino,RU,2020-04-07 00:53:58,49.09,140.25,31.82,94,98,22.03,light snow,0.0,0.02283464566929134
278,Longyearbyen,SJ,2020-04-07 00:53:58,78.22,15.64,10.2,90,100,3.74,overcast clouds,0.0,0.0
279,Sandwick,GB,2020-04-07 00:53:58,60.0,-1.25,44.6,81,56,18.34,broken clouds,0.0,0.0
280,Talnakh,RU,2020-04-07 00:53:58,69.49,88.4,30.2,92,90,17.9,shower snow,0.0,0.0
281,Cidreira,BR,2020-04-07 00:53:58,-30.18,-50.21,68.52,86,53,8.61,broken clouds,0.0,0.0
282,Ostrovnoy,RU,2020-04-07 00:51:50,68.05,39.51,14.02,93,66,8.08,broken clouds,0.0,0.0
283,Newport,GB,2020-04-07 00:51:07,51.59,-3.0,43.0,93,0,4.7,clear sky,0.0,0.0
284,Berlevag,NO,2020-04-07 00:53:59,70.86,29.09,28.4,79,75,16.11,broken clouds,0.0,0.0
285,Tambura,SS,2020-04-07 00:53:59,5.6,27.47,74.32,64,46,4.21,scattered clouds,0.0,0.0
286,Preobrazheniye,RU,2020-04-07 00:53:59,42.9,133.91,48.04,46,23,7.0,few clouds,0.0,0.0
287,Tambilil,PH,2020-04-07 00:54:00,5.96,124.67,86.0,58,20,2.24,few clouds,0.0,0.0
288,Sembe,CG,2020-04-07 00:54:00,1.65,14.58,71.1,82,70,1.39,broken clouds,0.0,0.0
289,Mazatlan,MX,2020-04-07 00:53:30,23.22,-106.42,82.4,42,75,13.87,broken clouds,0.0,0.0
290,Exeter,GB,2020-04-07 00:54:00,50.72,-3.53,44.01,93,5,4.16,clear sky,0.0,0.0
291,Leticia,CO,2020-04-07 00:54:00,-4.22,-69.94,75.2,100,75,3.36,broken clouds,0.0,0.0
292,Ambon,ID,2020-04-07 00:54:00,-3.7,128.18,86.0,74,20,4.7,few clouds,0.0,0.0
293,Arlit,NE,2020-04-07 00:54:00,18.74,7.39,83.53,11,0,8.46,clear sky,0.0,0.0
294,Hobyo,SO,2020-04-07 00:54:00,5.35,48.53,81.82,77,48,11.36,scattered clouds,0.0,0.0
295,Georgetown,MY,2020-04-07 00:54:01,5.41,100.34,82.4,94,20,2.24,few clouds,0.0,0.0
296,Kapit,MY,2020-04-07 00:54:01,2.02,112.93,75.63,94,100,0.76,moderate rain,0.15748031496062992,0.0
297,Finnsnes,NO,2020-04-07 00:54:01,69.23,17.98,37.0,80,100,14.99,overcast clouds,0.0,0.0
298,Pisco,PE,2020-04-07 00:54:01,-13.7,-76.22,73.4,83,40,14.99,scattered clouds,0.0,0.0
299,Colquechaca,BO,2020-04-07 00:54:01,-18.67,-66.02,38.44,28,83,6.89,moderate rain,0.13503937007874017,0.0
300,Hithadhoo,MV,2020-04-07 00:51:03,-0.6,73.08,83.8,66,12,6.67,few clouds,0.0,0.0
301,Mosquera,CO,2020-04-07 00:54:01,4.71,-74.23,57.2,87,75,2.24,shower rain,0.0,0.0
302,Tashara,RU,2020-04-07 00:54:01,55.52,83.51,35.6,94,100,5.88,overcast clouds,0.0,0.0
303,Aguimes,ES,2020-04-07 00:54:01,27.91,-15.45,68.0,77,20,16.11,few clouds,0.0,0.0
304,San Ignacio,BZ,2020-04-07 00:54:02,17.16,-89.07,80.01,74,0,5.99,clear sky,0.0,0.0
305,Junction City,US,2020-04-07 00:54:02,39.03,-96.83,73.4,56,1,18.34,clear sky,0.0,0.0
306,Santa Marta,CO,2020-04-07 00:53:46,11.24,-74.2,75.99,86,100,1.99,light rain,0.010629921259842521,0.0
307,Tuy Hoa,VN,2020-04-07 00:54:02,13.08,109.3,79.21,76,85,3.27,overcast clouds,0.0,0.0
308,Clyde River,CA,2020-04-07 00:54:02,70.47,-68.59,12.2,78,1,39.15,light snow,0.0,0.0
309,Arroyo,ES,2020-04-07 00:54:02,41.61,-4.8,51.01,100,75,6.93,broken clouds,0.0,0.0
310,Port Blair,IN,2020-04-07 00:54:03,11.67,92.75,81.36,75,87,5.48,overcast clouds,0.0,0.0
311,Puerto Madryn,AR,2020-04-07 00:51:59,-42.77,-65.04,49.89,44,0,6.8,clear sky,0.0,0.0
312,Hervey Bay,AU,2020-04-07 00:54:03,-25.3,152.85,78.8,57,40,14.99,scattered clouds,0.0,0.0
313,Bafra,TR,2020-04-07 00:54:03,41.57,35.91,46.4,65,40,16.11,scattered clouds,0.0,0.0
314,Sorland,NO,2020-04-07 00:54:03,67.67,12.69,41.31,86,100,33.87,overcast clouds,0.0,0.0
315,Sibu,MY,2020-04-07 00:54:03,2.3,111.82,77.0,94,75,2.24,light rain,0.0,0.0
316,Vetluzhskiy,RU,2020-04-07 00:54:03,58.39,45.47,26.35,92,0,6.2,clear sky,0.0,0.0
317,Coffeyville,US,2020-04-07 00:50:36,37.04,-95.62,71.6,68,90,12.75,overcast clouds,0.0,0.0
318,Hamilton,US,2020-04-07 00:54:04,39.18,-84.53,66.0,63,75,3.36,broken clouds,0.0,0.0
319,Onega,RU,2020-04-07 00:54:04,63.91,38.14,27.36,91,90,8.08,overcast clouds,0.0,0.0
320,Lebedyn,UA,2020-04-07 00:54:04,50.59,34.48,39.92,74,2,6.35,clear sky,0.0,0.0
321,Kamaishi,JP,2020-04-07 00:54:04,39.27,141.88,48.2,49,75,6.93,broken clouds,0.0,0.0
322,Bethel,US,2020-04-07 00:54:04,41.37,-73.41,60.01,34,1,3.36,clear sky,0.0,0.0
323,Talakan,RU,2020-04-07 00:54:04,50.32,130.37,35.42,78,100,4.16,light snow,0.0,0.004724409448818898
324,Bonavista,CA,2020-04-07 00:54:04,48.65,-53.11,30.99,87,100,8.99,overcast clouds,0.0,0.0
325,Bilibino,RU,2020-04-07 00:54:05,68.05,166.44,5.0,85,98,4.68,overcast clouds,0.0,0.0
326,Port Hueneme,US,2020-04-07 00:54:05,34.15,-119.2,61.0,67,40,11.41,scattered clouds,0.0,0.0
327,Ambanja,MG,2020-04-07 00:54:05,-13.68,48.45,75.13,83,42,3.44,light rain,0.01653543307086614,0.0
328,Ndele,CF,2020-04-07 00:54:05,8.41,20.65,77.18,44,36,3.51,scattered clouds,0.0,0.0
329,Shelby,US,2020-04-07 00:54:05,35.2,-89.87,73.99,60,1,8.05,clear sky,0.0,0.0
330,Tahta,EG,2020-04-07 00:54:05,26.77,31.5,69.8,43,0,11.41,clear sky,0.0,0.0
331,Sa Kaeo,TH,2020-04-07 00:51:11,13.81,102.07,79.93,79,83,2.19,broken clouds,0.0,0.0
332,Haileybury,CA,2020-04-07 00:54:05,47.45,-79.64,41.0,38,1,6.93,clear sky,0.0,0.0
333,Ayagoz,KZ,2020-04-07 00:54:06,47.97,80.44,43.65,78,34,5.57,scattered clouds,0.0,0.0
334,Bubaque,GW,2020-04-07 00:54:06,11.28,-15.83,79.2,71,0,13.6,clear sky,0.0,0.0
335,Bela,IN,2020-04-07 00:54:06,25.93,81.98,74.98,22,0,5.01,clear sky,0.0,0.0
336,Sumter,US,2020-04-07 00:51:26,28.71,-82.08,75.2,78,1,7.34,clear sky,0.0,0.0
337,Cervo,ES,2020-04-07 00:54:06,43.67,-7.41,54.0,1,93,7.29,light rain,0.006692913385826772,0.0
338,Asyut,EG,2020-04-07 00:54:06,27.18,31.18,62.6,63,0,12.75,clear sky,0.0,0.0
339,Hay River,CA,2020-04-07 00:54:07,60.82,-115.8,32.0,91,75,14.99,broken clouds,0.0,0.0
340,Wagar,SD,2020-04-07 00:54:07,16.15,36.2,82.31,44,24,6.67,few clouds,0.0,0.0
341,Gus-Zheleznyy,RU,2020-04-07 00:54:07,55.06,41.17,27.61,80,0,6.26,clear sky,0.0,0.0
342,North Bend,US,2020-04-07 00:51:52,43.41,-124.22,57.99,81,90,13.87,overcast clouds,0.0,0.0
343,Belyy Yar,RU,2020-04-07 00:54:07,53.6,91.39,32.0,79,23,1.5,mist,0.0,0.0
344,Nieuw Nickerie,SR,2020-04-07 00:54:07,5.95,-56.98,80.78,81,95,14.97,light rain,0.006299212598425198,0.0
345,Kruisfontein,ZA,2020-04-07 00:54:07,-34.0,24.73,53.1,69,86,18.07,overcast clouds,0.0,0.0
346,Liverpool,GB,2020-04-07 00:50:29,53.41,-2.98,45.0,87,0,5.82,clear sky,0.0,0.0
347,Teya,RU,2020-04-07 00:54:07,60.38,92.63,28.09,94,39,3.4,scattered clouds,0.0,0.0
348,Goderich,CA,2020-04-07 00:54:08,43.75,-81.72,48.0,51,100,2.55,overcast clouds,0.0,0.0
349,Tiksi,RU,2020-04-07 00:54:08,71.69,128.87,10.99,94,69,4.25,broken clouds,0.0,0.0
350,Brokopondo,SR,2020-04-07 00:54:08,4.75,-55.17,77.92,82,100,6.58,light rain,0.004724409448818898,0.0
351,Hvolsvollur,IS,2020-04-07 00:54:08,63.75,-20.22,28.0,89,100,13.0,light snow,0.0,0.03464566929133858
352,Rawson,AR,2020-04-07 00:53:11,-43.3,-65.1,54.5,40,0,9.64,clear sky,0.0,0.0
353,Iqaluit,CA,2020-04-07 00:54:08,63.75,-68.51,5.0,65,20,20.8,few clouds,0.0,0.0
354,Kudahuvadhoo,MV,2020-04-07 00:54:08,2.67,72.89,83.8,67,71,2.17,broken clouds,0.0,0.0
355,Greensburg,US,2020-04-07 00:54:09,40.3,-79.54,62.6,28,5,0.81,clear sky,0.0,0.0
356,Pavlodar,KZ,2020-04-07 00:54:09,52.3,76.95,39.2,86,90,8.95,overcast clouds,0.0,0.0
357,Epernay,FR,2020-04-07 00:54:09,49.05,3.95,51.8,93,82,2.98,broken clouds,0.0,0.0
358,Turukhansk,RU,2020-04-07 00:54:09,65.82,87.98,32.97,97,100,5.44,overcast clouds,0.0,0.0
359,Lukulu,ZM,2020-04-07 00:54:09,-14.37,23.24,65.75,65,37,1.97,scattered clouds,0.0,0.0
360,Lensk,RU,2020-04-07 00:54:09,60.73,114.93,31.23,91,9,4.74,clear sky,0.0,0.0
361,Baghdad,IQ,2020-04-07 00:49:37,33.34,44.4,69.8,52,96,2.24,light rain,0.005511811023622048,0.0
362,Catabola,AO,2020-04-07 00:54:10,-12.15,17.28,61.29,61,5,2.59,light rain,0.010629921259842521,0.0
363,Adre,TD,2020-04-07 00:54:10,13.47,22.2,74.08,10,2,7.61,clear sky,0.0,0.0
364,Old Saybrook,US,2020-04-07 00:54:10,41.29,-72.38,55.99,23,1,6.02,clear sky,0.0,0.0
365,Leningradskiy,RU,2020-04-07 00:54:10,69.38,178.42,7.77,82,8,3.91,clear sky,0.0,0.0
366,Mehamn,NO,2020-04-07 00:54:10,71.04,27.85,28.4,79,75,16.11,broken clouds,0.0,0.0
367,Dukat,RU,2020-04-07 00:54:10,62.55,155.55,15.08,86,41,4.63,scattered clouds,0.0,0.0
368,Limbe,CM,2020-04-07 00:54:11,4.02,9.21,78.8,88,40,1.45,scattered clouds,0.0,0.0
369,Pattoki,PK,2020-04-07 00:54:11,31.02,73.85,69.24,52,89,20.09,light rain,0.016929133858267716,0.0
370,Dibulla,CO,2020-04-07 00:54:11,11.27,-73.31,82.71,70,99,12.3,light rain,0.011811023622047244,0.0
371,Nanortalik,GL,2020-04-07 00:54:11,60.14,-45.24,26.82,88,0,23.85,clear sky,0.0,0.0
372,Ikongo,MG,2020-04-07 00:54:12,-21.88,47.43,66.33,84,14,1.79,light rain,0.018110236220472444,0.0
373,Abidjan,CI,2020-04-07 00:51:05,5.31,-4.02,82.4,88,20,2.24,few clouds,0.0,0.0
374,Komsomolskiy,UZ,2020-04-07 00:54:12,40.43,71.72,55.4,71,23,4.7,few clouds,0.0,0.0
375,Pasighat,IN,2020-04-07 00:54:12,28.07,95.33,67.15,51,49,3.06,scattered clouds,0.0,0.0
376,Bhainsdehi,IN,2020-04-07 00:54:12,21.65,77.63,76.3,19,46,2.17,scattered clouds,0.0,0.0
377,Le Port,RE,2020-04-07 00:54:12,-20.94,55.29,77.0,65,24,11.41,light rain,0.009448818897637795,0.0
378,Villach,AT,2020-04-07 00:54:12,46.61,13.86,41.0,60,3,2.24,clear sky,0.0,0.0
379,Airai,TL,2020-04-07 00:54:12,-8.93,125.41,67.93,60,17,2.77,few clouds,0.0,0.0
380,Sioux Lookout,CA,2020-04-07 00:54:13,50.1,-91.92,50.0,39,90,3.36,overcast clouds,0.0,0.0
381,Ducheng,CN,2020-04-07 00:54:13,23.24,111.53,60.42,85,91,1.99,overcast clouds,0.0,0.0
382,Victoria,HK,2020-04-07 00:54:04,22.29,114.16,68.0,77,40,4.7,scattered clouds,0.0,0.0
383,Katherine,AU,2020-04-07 00:54:13,-14.47,132.27,84.2,48,95,8.05,overcast clouds,0.0,0.0
384,Ossora,RU,2020-04-07 00:54:13,59.24,163.07,25.3,89,80,3.71,broken clouds,0.0,0.0
385,Camargo,MX,2020-04-07 00:54:13,27.67,-105.17,72.3,27,100,18.05,overcast clouds,0.0,0.0
386,Changji,CN,2020-04-07 00:54:13,44.02,87.32,57.2,22,89,4.47,overcast clouds,0.0,0.0
387,Puerto Cabezas,NI,2020-04-07 00:54:14,14.04,-83.39,78.94,82,63,6.69,broken clouds,0.0,0.0
388,Mwinilunga,ZM,2020-04-07 00:54:15,-11.74,24.43,63.99,65,100,3.44,light rain,0.07440944881889763,0.0
389,Marzuq,YE,2020-04-07 00:54:15,14.4,46.47,71.74,27,0,2.98,clear sky,0.0,0.0
390,Maldegem,BE,2020-04-07 00:54:15,51.2,3.45,48.0,87,24,6.93,few clouds,0.0,0.0
391,Marawi,PH,2020-04-07 00:54:15,8.0,124.29,77.86,56,41,1.16,scattered clouds,0.0,0.0
392,Carballo,ES,2020-04-07 00:54:16,43.21,-8.69,57.99,71,100,3.36,light rain,0.016929133858267716,0.0
393,Buraydah,SA,2020-04-07 00:54:17,26.33,43.98,69.8,94,75,20.8,broken clouds,0.0,0.0
394,Srednekolymsk,RU,2020-04-07 00:54:17,67.45,153.68,18.46,96,95,14.85,light snow,0.0,0.004330708661417323
395,Verkhoyansk,RU,2020-04-07 00:54:17,67.54,133.38,25.56,91,4,8.68,clear sky,0.0,0.0
396,Iluppur,IN,2020-04-07 00:54:18,10.51,78.62,84.2,79,40,4.7,mist,0.0,0.0
397,Loanda,AO,2020-04-07 00:53:59,-8.84,13.23,80.6,83,40,8.05,scattered clouds,0.0,0.0
398,Norman Wells,CA,2020-04-07 00:54:18,65.28,-126.83,26.6,53,40,14.99,scattered clouds,0.0,0.0
399,Scarborough,GB,2020-04-07 00:54:18,54.28,-0.4,46.0,75,0,2.24,clear sky,0.0,0.0
400,Kununurra,AU,2020-04-07 00:54:18,-15.77,128.73,89.6,35,93,11.41,overcast clouds,0.0,0.0
401,Point Pedro,LK,2020-04-07 00:54:08,9.82,80.23,81.03,82,0,9.57,clear sky,0.0,0.0
402,Moussoro,TD,2020-04-07 00:54:19,13.64,16.49,86.58,12,10,10.11,clear sky,0.0,0.0
403,Jutai,BR,2020-04-07 00:54:19,-5.18,-68.9,78.31,87,87,1.01,light rain,0.015748031496062995,0.0
404,Tolaga Bay,NZ,2020-04-07 00:54:19,-38.37,178.3,64.67,52,90,3.06,overcast clouds,0.0,0.0
405,Tchibanga,GA,2020-04-07 00:54:19,-2.85,11.03,73.24,92,99,0.51,overcast clouds,0.0,0.0
406,Dunedin,NZ,2020-04-07 00:54:04,-45.87,170.5,55.99,93,93,5.08,overcast clouds,0.0,0.0
407,Turayf,SA,2020-04-07 00:54:19,31.67,38.66,59.0,54,74,3.96,broken clouds,0.0,0.0
408,Bhavnagar,IN,2020-04-07 00:54:19,21.77,72.15,78.49,43,10,6.8,clear sky,0.0,0.0
409,Charters Towers,AU,2020-04-07 00:54:20,-20.1,146.27,79.54,48,2,11.68,clear sky,0.0,0.0
410,Road Town,VG,2020-04-07 00:50:13,18.42,-64.62,80.6,74,1,10.29,clear sky,0.0,0.0
411,Ayan,RU,2020-04-07 00:54:20,56.45,138.17,26.01,89,12,5.66,few clouds,0.0,0.0
412,Tutoia,BR,2020-04-07 00:54:20,-2.76,-42.27,79.93,86,98,11.3,overcast clouds,0.0,0.0
413,Margate,GB,2020-04-07 00:54:20,51.38,1.39,50.0,70,4,4.7,clear sky,0.0,0.0
414,La Ronge,CA,2020-04-07 00:54:20,55.1,-105.28,26.6,92,90,8.05,light snow,0.0,0.0
415,Peniche,PT,2020-04-07 00:54:20,39.36,-9.38,62.01,93,75,8.05,broken clouds,0.0,0.0
416,Ngora,UG,2020-04-07 00:54:20,1.43,33.78,68.02,59,75,3.29,broken clouds,0.0,0.0
417,Waipawa,NZ,2020-04-07 00:54:20,-41.41,175.52,63.0,77,79,19.46,broken clouds,0.0,0.0
418,Brae,GB,2020-04-07 00:54:20,60.4,-1.35,44.6,75,48,18.34,light rain,0.005118110236220473,0.0
419,Tsiroanomandidy,MG,2020-04-07 00:54:20,-18.77,46.03,64.76,74,2,0.49,clear sky,0.0,0.0
420,Anadyr,RU,2020-04-07 00:52:08,64.75,177.48,0.0,64,1,2.24,clear sky,0.0,0.0
421,Tautira,PF,2020-04-07 00:54:21,-17.73,-149.15,86.0,74,19,8.05,light rain,0.03307086614173228,0.0
422,Gallup,US,2020-04-07 00:54:21,35.53,-108.74,64.4,9,1,25.28,clear sky,0.0,0.0
423,Mariental,NA,2020-04-07 00:54:21,-24.63,17.97,63.54,23,13,8.97,few clouds,0.0,0.0
424,Moron,AR,2020-04-07 00:54:21,-34.65,-58.62,59.0,62,0,3.36,clear sky,0.0,0.0
425,Deori,IN,2020-04-07 00:54:21,21.45,82.62,79.03,26,8,2.04,clear sky,0.0,0.0
426,Atar,MR,2020-04-07 00:54:21,20.52,-13.05,78.53,19,0,9.62,clear sky,0.0,0.0
427,Nishihara,JP,2020-04-07 00:54:21,26.18,127.76,64.4,88,90,9.17,light intensity shower rain,0.0,0.0
428,Ashqelon,IL,2020-04-07 00:54:22,31.67,34.57,61.0,82,40,4.7,scattered clouds,0.0,0.0
429,Bud,US,2020-04-07 00:54:22,39.45,-86.18,69.8,68,90,4.7,overcast clouds,0.0,0.0
430,Sambava,MG,2020-04-07 00:54:23,-14.27,50.17,74.82,86,3,6.38,light rain,0.010236220472440946,0.0
431,Hasaki,JP,2020-04-07 00:54:23,35.73,140.83,57.99,54,75,4.7,broken clouds,0.0,0.0
432,Qeshm,IR,2020-04-07 00:54:23,26.96,56.27,71.6,88,0,4.7,mist,0.0,0.0
433,Key Largo,US,2020-04-07 00:54:24,25.09,-80.45,78.8,83,90,6.93,overcast clouds,0.0,0.0
434,Kedougou,SN,2020-04-07 00:54:24,12.56,-12.17,93.2,17,0,4.7,clear sky,0.0,0.0
435,Labytnangi,RU,2020-04-07 00:54:25,66.66,66.42,14.18,93,90,6.8,light snow,0.0,0.004330708661417323
436,Ust-Nera,RU,2020-04-07 00:54:26,64.57,143.2,12.56,84,52,6.08,broken clouds,0.0,0.0
437,Usinsk,RU,2020-04-07 00:54:26,65.99,57.53,15.39,96,100,12.06,light snow,0.0,0.007874015748031498
438,Pevek,RU,2020-04-07 00:54:26,69.7,170.31,1.31,86,97,16.58,overcast clouds,0.0,0.0
439,Pangody,RU,2020-04-07 00:54:27,65.85,74.49,28.18,98,99,5.21,light snow,0.0,0.018503937007874015
440,Crateus,BR,2020-04-07 00:49:28,-5.18,-40.68,73.98,84,99,3.04,overcast clouds,0.0,0.0
441,Volga,RU,2020-04-07 00:54:27,57.95,38.39,27.0,82,0,2.53,clear sky,0.0,0.0
442,Kaitangata,NZ,2020-04-07 00:54:27,-46.28,169.85,54.84,87,93,2.51,light rain,0.05590551181102362,0.0
443,Port Lincoln,AU,2020-04-07 00:54:27,-34.73,135.87,62.89,69,5,8.41,clear sky,0.0,0.0
444,Broken Hill,AU,2020-04-07 00:54:27,-31.95,141.43,62.6,51,52,9.17,broken clouds,0.0,0.0
445,Koslan,RU,2020-04-07 00:54:28,63.46,48.9,21.96,94,90,9.15,light snow,0.0,0.01968503937007874
446,Kaeo,NZ,2020-04-07 00:54:28,-35.1,173.78,68.0,79,30,1.99,light rain,0.008661417322834646,0.0
447,Wah,PK,2020-04-07 00:54:28,33.8,72.7,64.0,63,90,16.11,thunderstorm,0.0,0.0
448,Aracati,BR,2020-04-07 00:54:28,-4.56,-37.77,81.18,83,99,9.31,light rain,0.014173228346456693,0.0
449,Aviles,ES,2020-04-07 00:54:28,43.55,-5.92,54.0,93,90,5.82,overcast clouds,0.0,0.0
450,Kokopo,PG,2020-04-07 00:54:29,-4.35,152.26,84.42,64,79,3.24,broken clouds,0.0,0.0
451,Tallahassee,US,2020-04-07 00:50:45,30.44,-84.28,77.0,50,20,4.7,few clouds,0.0,0.0
452,Pudozh,RU,2020-04-07 00:54:29,61.81,36.53,25.16,90,41,5.14,scattered clouds,0.0,0.0
453,Coolum Beach,AU,2020-04-07 00:54:29,-26.53,153.1,78.01,72,66,1.01,light rain,0.01732283464566929,0.0
454,Hambantota,LK,2020-04-07 00:52:17,6.12,81.12,75.2,100,20,4.23,few clouds,0.0,0.0
455,Pacific Grove,US,2020-04-07 00:54:29,36.62,-121.92,55.4,58,1,13.87,clear sky,0.0,0.0
456,Ilo,PE,2020-04-07 00:54:17,-17.64,-71.34,73.29,76,43,2.93,scattered clouds,0.0,0.0
457,San Rafael,AR,2020-04-07 00:52:34,-34.62,-68.33,56.26,28,0,7.94,clear sky,0.0,0.0
458,Pospelikha,RU,2020-04-07 00:54:29,51.95,81.77,40.5,78,16,4.16,few clouds,0.0,0.0
459,San Jeronimo,PE,2020-04-07 00:54:30,-11.95,-75.28,50.79,29,36,3.2,light rain,0.031102362204724412,0.0
460,Polovinnoye,RU,2020-04-07 00:54:30,54.79,65.99,37.11,91,100,6.6,light rain,0.08070866141732283,0.0
461,Kysyl-Syr,RU,2020-04-07 00:54:30,63.9,122.76,33.51,94,100,5.84,overcast clouds,0.0,0.0
462,Saint Anthony,US,2020-04-07 00:54:30,45.02,-93.22,57.2,67,90,10.29,overcast clouds,0.0,0.0
463,Kamenka,RU,2020-04-07 00:54:30,51.32,42.77,25.0,59,0,9.69,clear sky,0.0,0.0
464,Deputatskiy,RU,2020-04-07 00:54:30,69.3,139.9,13.96,89,49,13.31,scattered clouds,0.0,0.0
465,Makamba,BI,2020-04-07 00:54:30,-4.13,29.8,63.7,58,83,2.77,light rain,0.047637795275590554,0.0
466,Alanya,TR,2020-04-07 00:54:30,36.54,32.0,59.85,75,46,3.02,scattered clouds,0.0,0.0
467,Chizhou,CN,2020-04-07 00:54:30,30.66,117.48,57.58,61,80,2.48,broken clouds,0.0,0.0
468,Fairbanks,US,2020-04-07 00:50:29,64.84,-147.72,17.01,72,90,13.87,light snow,0.0,0.0
469,San Cristobal,VE,2020-04-07 00:54:31,7.77,-72.22,71.87,64,91,1.5,moderate rain,0.2456692913385827,0.0
470,Ngunguru,NZ,2020-04-07 00:54:31,-35.62,174.5,68.0,67,73,5.01,broken clouds,0.0,0.0
471,Albert,FR,2020-04-07 00:54:31,50.0,2.65,45.0,100,38,2.24,scattered clouds,0.0,0.0
472,Doha,QA,2020-04-07 00:54:31,25.29,51.53,75.2,25,0,2.24,clear sky,0.0,0.0
473,Half Moon Bay,US,2020-04-07 00:54:31,37.46,-122.43,53.01,87,90,5.82,moderate rain,0.0,0.0
474,Yumen,CN,2020-04-07 00:54:32,40.28,97.2,45.61,25,3,4.25,clear sky,0.0,0.0
475,Sena Madureira,BR,2020-04-07 00:52:05,-9.07,-68.66,78.87,75,47,2.75,scattered clouds,0.0,0.0
476,Roros,NO,2020-04-07 00:54:32,62.57,11.38,41.0,69,75,4.7,broken clouds,0.0,0.0
477,Gubkinskiy,RU,2020-04-07 00:54:32,64.43,76.5,31.17,99,100,11.99,snow,0.0,0.09685039370078741
478,Kiruna,SE,2020-04-07 00:54:32,67.86,20.23,28.4,92,100,8.05,overcast clouds,0.0,0.0
479,Krasnyy Yar,RU,2020-04-07 00:54:32,46.53,48.35,32.0,72,2,15.66,clear sky,0.0,0.0
480,Xichang,CN,2020-04-07 00:54:32,27.9,102.26,52.74,42,89,1.74,overcast clouds,0.0,0.0
481,Salalah,OM,2020-04-07 00:54:32,17.02,54.09,77.0,69,0,3.36,clear sky,0.0,0.0
482,Mlimba,TZ,2020-04-07 00:54:33,-8.8,35.82,72.93,79,94,0.98,light rain,0.08228346456692913,0.0
483,Luderitz,NA,2020-04-07 00:54:33,-26.65,15.16,60.8,67,4,14.99,clear sky,0.0,0.0
484,Miri,MY,2020-04-07 00:54:33,4.41,114.01,80.6,94,75,3.36,broken clouds,0.0,0.0
485,Bilma,NE,2020-04-07 00:49:57,18.69,12.92,84.06,12,0,10.4,clear sky,0.0,0.0
486,Richards Bay,ZA,2020-04-07 00:54:33,-28.78,32.04,74.62,89,82,13.58,light rain,0.013779527559055118,0.0
487,Tigil,RU,2020-04-07 00:54:33,57.8,158.67,26.26,89,98,1.61,overcast clouds,0.0,0.0
488,Alta Floresta,BR,2020-04-07 00:54:33,-9.88,-56.09,77.16,78,88,1.03,overcast clouds,0.0,0.0
489,Katsuura,JP,2020-04-07 00:54:34,35.13,140.3,57.99,61,75,5.82,broken clouds,0.0,0.0
490,Marsh Harbour,BS,2020-04-07 00:54:34,26.54,-77.06,71.96,71,98,9.78,light rain,0.005511811023622048,0.0
491,Praia,CV,2020-04-07 00:54:34,14.92,-23.51,71.6,78,0,14.99,clear sky,0.0,0.0
492,Asosa,ET,2020-04-07 00:54:34,10.07,34.53,72.25,29,70,2.39,broken clouds,0.0,0.0
493,Taywarah,AF,2020-04-07 00:54:34,33.35,64.42,31.26,33,0,3.04,clear sky,0.0,0.0
494,Paamiut,GL,2020-04-07 00:54:34,61.99,-49.67,19.92,92,42,5.17,scattered clouds,0.0,0.0
495,Dawlatabad,AF,2020-04-07 00:54:34,36.41,64.91,52.32,67,0,0.54,clear sky,0.0,0.0
496,Fethiye,TR,2020-04-07 00:54:35,36.62,29.12,53.6,93,75,4.7,broken clouds,0.0,0.0
497,Olafsvik,IS,2020-04-07 00:54:35,64.89,-23.71,32.0,94,96,31.34,light snow,0.0,0.03700787401574803
498,Shanhetun,CN,2020-04-07 00:54:35,44.7,127.2,36.86,61,36,14.76,scattered clouds,0.0,0.0
499,Lufkin,US,2020-04-07 00:50:16,31.34,-94.73,75.2,78,90,6.93,overcast clouds,0.0,0.0
500,Tecoanapa,MX,2020-04-07 00:54:35,16.52,-98.75,83.82,59,1,9.6,clear sky,0.0,0.0
501,Sur,OM,2020-04-07 00:54:35,22.57,59.53,78.87,55,15,3.02,few clouds,0.0,0.0
502,Coquimbo,CL,2020-04-07 00:54:35,-29.95,-71.34,60.8,77,6,2.24,clear sky,0.0,0.0
503,Husavik,IS,2020-04-07 00:54:35,66.04,-17.34,35.6,43,40,39.15,scattered clouds,0.0,0.0
504,At-Bashi,KG,2020-04-07 00:54:35,41.17,75.81,37.09,29,20,5.53,few clouds,0.0,0.0
505,Villazon,BO,2020-04-07 00:54:36,-22.09,-65.59,51.93,24,44,15.3,scattered clouds,0.0,0.0
506,Sinnamary,GF,2020-04-07 00:54:36,5.38,-52.95,80.28,82,21,14.45,few clouds,0.0,0.0
507,Faya,SA,2020-04-07 00:54:36,18.39,42.45,62.6,77,43,4.21,scattered clouds,0.0,0.0
508,Shediac,CA,2020-04-07 00:50:44,46.22,-64.54,39.2,38,75,9.17,broken clouds,0.0,0.0
509,Gigmoto,PH,2020-04-07 00:54:36,13.78,124.39,80.47,78,16,8.81,light rain,0.016929133858267716,0.0
510,Paramonga,PE,2020-04-07 00:54:36,-10.67,-77.83,74.28,75,29,8.88,scattered clouds,0.0,0.0
511,Veraval,IN,2020-04-07 00:54:36,20.9,70.37,73.67,74,28,8.19,scattered clouds,0.0,0.0
512,Bloemfontein,ZA,2020-04-07 00:54:36,-29.12,26.21,46.4,87,79,4.79,broken clouds,0.0,0.0
513,Cam Ranh,VN,2020-04-07 00:54:36,11.92,109.16,78.4,71,86,4.47,overcast clouds,0.0,0.0
514,Taruma,BR,2020-04-07 00:54:37,-22.75,-50.58,74.55,75,83,1.74,light rain,0.0578740157480315,0.0
515,Maragogi,BR,2020-04-07 00:52:34,-9.01,-35.22,80.15,81,35,5.79,scattered clouds,0.0,0.0
516,Bac Lieu,VN,2020-04-07 00:52:53,9.29,105.72,82.02,71,76,6.08,broken clouds,0.0,0.0
517,Fountain,US,2020-04-07 00:49:38,38.68,-104.7,75.2,6,1,21.92,clear sky,0.0,0.0
518,Valle De Allende,MX,2020-04-07 00:54:37,26.93,-105.4,69.85,23,100,15.21,overcast clouds,0.0,0.0
519,Ballina,AU,2020-04-07 00:54:37,-28.87,153.57,75.2,73,75,16.11,broken clouds,0.0,0.0
520,Acapulco,MX,2020-04-07 00:50:33,16.86,-99.89,82.4,78,5,11.41,clear sky,0.0,0.0
521,Kirkwood,US,2020-04-07 00:51:31,38.58,-90.41,73.99,60,20,5.82,few clouds,0.0,0.0
522,Huruta,ET,2020-04-07 00:54:37,8.15,39.35,59.83,28,53,2.42,broken clouds,0.0,0.0
523,Beloeil,CA,2020-04-07 00:54:38,45.57,-73.2,50.0,25,75,6.93,broken clouds,0.0,0.0
524,Severo-Yeniseyskiy,RU,2020-04-07 00:54:38,60.37,93.04,25.65,93,11,4.0,few clouds,0.0,0.0
525,Neka,IR,2020-04-07 00:54:38,36.65,53.3,53.6,100,90,4.7,light rain,0.0,0.0
526,Tadine,NC,2020-04-07 00:51:52,-21.55,167.88,81.52,69,84,17.87,broken clouds,0.0,0.0
527,Mana,GF,2020-04-07 00:54:38,5.66,-53.78,78.76,84,87,10.02,light rain,0.007874015748031498,0.0
528,Luau,AO,2020-04-07 00:54:38,-10.71,22.22,65.26,69,90,1.01,light rain,0.03818897637795276,0.0
529,Luchenza,MW,2020-04-07 00:54:38,-16.01,35.31,69.22,53,6,6.62,clear sky,0.0,0.0
530,Tarrafal,CV,2020-04-07 00:54:38,15.28,-23.77,71.6,78,0,14.99,clear sky,0.0,0.0
531,Nemuro,JP,2020-04-07 00:54:38,43.32,145.57,42.8,60,40,14.99,scattered clouds,0.0,0.0
532,Shache,CN,2020-04-07 00:54:38,38.42,77.24,50.81,26,0,2.48,clear sky,0.0,0.0
533,Yulara,AU,2020-04-07 00:54:39,-25.24,130.99,68.0,34,100,11.41,overcast clouds,0.0,0.0
534,Fabriano,IT,2020-04-07 00:54:39,43.34,12.91,50.0,65,0,10.29,clear sky,0.0,0.0
535,Springdale,US,2020-04-07 00:54:39,36.19,-94.13,71.01,82,90,5.82,overcast clouds,0.0,0.0
536,La Palma,US,2020-04-07 00:54:39,33.85,-118.05,62.6,63,90,5.82,overcast clouds,0.0,0.0
537,Peleduy,RU,2020-04-07 00:54:40,59.63,112.74,32.4,87,0,1.99,clear sky,0.0,0.0
538,Presidencia Roque Saenz Pena,AR,2020-04-07 00:54:40,-26.79,-60.44,70.5,61,25,5.68,scattered clouds,0.0,0.0
539,Moses Lake,US,2020-04-07 00:51:47,47.13,-119.28,66.99,22,1,10.29,clear sky,0.0,0.0
540,Manzanillo,CU,2020-04-07 00:54:40,20.34,-77.12,79.36,69,50,3.89,scattered clouds,0.0,0.0
541,Sal Rei,CV,2020-04-07 00:54:40,16.18,-22.92,71.6,83,40,13.87,scattered clouds,0.0,0.0
542,Muros,ES,2020-04-07 00:54:40,42.78,-9.06,61.0,81,20,5.82,few clouds,0.0,0.0
543,Pompeu,BR,2020-04-07 00:54:40,-19.22,-44.94,69.76,75,38,0.49,light rain,0.10708661417322836,0.0
544,Manzhouli,CN,2020-04-07 00:53:32,49.6,117.43,35.65,53,0,8.23,clear sky,0.0,0.0
545,Portland,US,2020-04-07 00:51:50,45.52,-122.68,63.0,39,90,3.36,overcast clouds,0.0,0.0
546,Changying,CN,2020-04-07 00:54:41,52.87,123.32,28.89,77,15,8.3,few clouds,0.0,0.0
547,Kirkland Lake,CA,2020-04-07 00:54:41,48.14,-80.04,41.0,38,1,6.93,clear sky,0.0,0.0
548,Samarai,PG,2020-04-07 00:54:41,-10.62,150.67,83.82,70,61,8.52,light rain,0.05472440944881889,0.0
549,Cabedelo,BR,2020-04-07 00:54:42,-6.98,-34.83,78.8,94,20,5.82,few clouds,0.0,0.0
550,Loa Janan,ID,2020-04-07 00:54:42,-0.58,117.09,78.19,87,88,3.42,light rain,0.028346456692913385,0.0
551,Pierre,US,2020-04-07 00:50:14,44.37,-100.35,78.8,22,1,5.82,clear sky,0.0,0.0
552,Yar-Sale,RU,2020-04-07 00:54:42,66.83,70.83,18.07,97,96,4.99,overcast clouds,0.0,0.0
553,Laguna,US,2020-04-07 00:54:42,38.42,-121.42,57.0,87,90,4.94,moderate rain,0.0,0.0
554,Yahualica,MX,2020-04-07 00:54:43,21.13,-102.85,83.86,8,33,13.67,scattered clouds,0.0,0.0
555,Fort Nelson,CA,2020-04-07 00:54:43,58.81,-122.7,41.0,38,75,4.7,broken clouds,0.0,0.0
556,Siderno,IT,2020-04-07 00:54:43,38.28,16.3,57.99,93,75,4.7,broken clouds,0.0,0.0
557,Taldan,RU,2020-04-07 00:54:43,53.67,124.8,28.63,78,0,9.93,clear sky,0.0,0.0
558,Toora-Khem,RU,2020-04-07 00:54:43,52.47,96.11,28.09,72,3,2.62,clear sky,0.0,0.0
559,Volgodonsk,RU,2020-04-07 00:54:43,47.51,42.15,34.38,72,0,5.84,clear sky,0.0,0.0
560,Kendari,ID,2020-04-07 00:54:44,-3.94,122.5,80.62,86,88,2.51,light rain,0.07637795275590552,0.0
561,Beitbridge,ZW,2020-04-07 00:54:44,-22.22,30.0,71.4,28,0,3.78,clear sky,0.0,0.0
562,Krasnoarmeysk,RU,2020-04-07 00:54:44,51.02,45.7,30.47,81,21,17.92,few clouds,0.0,0.0
563,Kandrian,PG,2020-04-07 00:54:44,-6.22,149.55,86.2,66,41,1.1,scattered clouds,0.0,0.0
564,Nouakchott,MR,2020-04-07 00:54:44,18.09,-15.98,75.2,53,0,10.29,clear sky,0.0,0.0
565,Bauta,CU,2020-04-07 00:54:44,22.98,-82.55,80.6,74,20,10.29,few clouds,0.0,0.0
566,Kyrylivka,UA,2020-04-07 00:54:44,46.38,35.37,43.81,60,0,11.25,clear sky,0.0,0.0
567,Rumilly,FR,2020-04-07 00:54:44,45.87,5.95,55.4,75,0,5.82,clear sky,0.0,0.0
568,Thinadhoo,MV,2020-04-07 00:54:45,0.53,72.93,83.95,68,16,3.24,few clouds,0.0,0.0
569,Bend,US,2020-04-07 00:54:30,44.06,-121.32,59.0,41,20,10.29,few clouds,0.0,0.0
570,Stephenville,US,2020-04-07 00:54:45,32.22,-98.2,69.8,88,75,6.93,broken clouds,0.0,0.0
571,Savannah Bight,HN,2020-04-07 00:54:45,16.45,-85.85,81.19,78,0,19.57,clear sky,0.0,0.0
