City_ID,City,Country,Date,Lat,Lng,Max Temp,Humidity,Cloudiness,Wind Speed,Current Description,Rain inches (last 3 hrs),Snow inches (last 3 hrs)
0,Bluff,NZ,2020-04-06 00:32:51,-46.6,168.33,60.01,90,100,5.01,light rain,0.00984251968503937,0.0
1,Hobart,AU,2020-04-06 00:32:51,-42.88,147.33,57.0,54,75,11.41,broken clouds,0.00984251968503937,0.0
2,Ucluelet,CA,2020-04-06 00:32:51,48.93,-125.55,54.0,51,20,13.87,few clouds,0.00984251968503937,0.0
3,Teguldet,RU,2020-04-06 00:32:51,57.31,88.17,29.5,94,2,9.55,clear sky,0.00984251968503937,0.0
4,Cherskiy,RU,2020-04-06 00:32:52,68.75,161.3,5.23,90,0,14.23,clear sky,0.00984251968503937,0.0
5,Cape Town,ZA,2020-04-06 00:23:03,-33.93,18.42,59.0,100,75,11.41,broken clouds,0.00984251968503937,0.0
6,Bredasdorp,ZA,2020-04-06 00:32:52,-34.53,20.04,60.8,63,71,13.87,broken clouds,0.00984251968503937,0.0
7,Kattivakkam,IN,2020-04-06 00:32:52,13.22,80.32,84.2,89,40,5.82,scattered clouds,0.00984251968503937,0.0
8,Mahebourg,MU,2020-04-06 00:32:52,-20.41,57.7,78.8,74,40,9.17,scattered clouds,0.00984251968503937,0.0
9,Vaini,TO,2020-04-06 00:32:52,-21.2,-175.2,80.6,65,75,6.93,broken clouds,0.00984251968503937,0.0
10,Norman Wells,CA,2020-04-06 00:32:52,65.28,-126.83,28.4,50,40,19.46,scattered clouds,0.00984251968503937,0.0
11,Ixtapa,MX,2020-04-06 00:31:42,20.7,-105.2,78.8,74,75,9.17,broken clouds,0.00984251968503937,0.0
12,Bambous Virieux,MU,2020-04-06 00:32:53,-20.34,57.76,78.8,74,40,9.17,scattered clouds,0.00984251968503937,0.0
13,Kaspiyskiy,RU,2020-04-06 00:32:53,45.39,47.37,48.96,54,68,9.33,broken clouds,0.00984251968503937,0.0
14,Arraial Do Cabo,BR,2020-04-06 00:32:53,-22.97,-42.03,75.29,71,72,9.53,broken clouds,0.00984251968503937,0.0
15,Bonthe,SL,2020-04-06 00:32:53,7.53,-12.51,82.02,85,1,5.99,clear sky,0.00984251968503937,0.0
16,Dunda,TZ,2020-04-06 00:32:53,-8.12,34.25,63.03,66,36,0.45,scattered clouds,0.00984251968503937,0.0
17,Balabac,PH,2020-04-06 00:32:53,7.99,117.06,82.76,73,50,11.77,scattered clouds,0.00984251968503937,0.0
18,Luderitz,NA,2020-04-06 00:27:54,-26.65,15.16,55.4,93,8,3.36,clear sky,0.00984251968503937,0.0
19,Dawson Creek,CA,2020-04-06 00:30:14,55.77,-120.24,26.6,38,1,2.24,clear sky,0.00984251968503937,0.0
20,Barrow,US,2020-04-06 00:30:37,71.29,-156.79,24.8,92,90,10.29,light snow,0.00984251968503937,0.0
21,Furth Im Wald,DE,2020-04-06 00:32:54,49.31,12.84,46.0,48,6,4.7,clear sky,0.00984251968503937,0.0
22,Atuona,PF,2020-04-06 00:32:54,-9.8,-139.03,81.61,76,12,14.05,few clouds,0.00984251968503937,0.0
23,Tarpon Springs,US,2020-04-06 00:32:54,28.15,-82.76,66.2,100,90,4.7,light rain,0.00984251968503937,0.0
24,Airai,TL,2020-04-06 00:32:55,-8.93,125.41,68.5,58,17,2.28,few clouds,0.00984251968503937,0.0
25,Ayagoz,KZ,2020-04-06 00:32:55,47.97,80.44,45.99,50,99,3.71,overcast clouds,0.00984251968503937,0.0
26,Namibe,AO,2020-04-06 00:24:08,-15.2,12.15,72.0,73,2,5.75,clear sky,0.00984251968503937,0.0
27,Kodiak,US,2020-04-06 00:32:55,57.79,-152.41,39.2,41,1,17.22,clear sky,0.00984251968503937,0.0
28,Jamestown,US,2020-04-06 00:32:55,42.1,-79.24,46.4,75,20,6.93,few clouds,0.00984251968503937,0.0
29,Port-Gentil,GA,2020-04-06 00:32:56,-0.72,8.78,81.54,86,7,9.55,clear sky,0.00984251968503937,0.0
30,Verkh-Usugli,RU,2020-04-06 00:32:57,52.7,115.17,29.17,57,0,3.51,clear sky,0.00984251968503937,0.0
31,Busselton,AU,2020-04-06 00:32:57,-33.65,115.33,68.0,37,56,16.49,broken clouds,0.00984251968503937,0.0
32,Bethel,US,2020-04-06 00:28:09,41.37,-73.41,55.99,76,1,3.36,clear sky,0.00984251968503937,0.0
33,Gat,IL,2020-04-06 00:32:58,31.61,34.76,60.8,82,75,6.93,broken clouds,0.00984251968503937,0.0
34,Hithadhoo,MV,2020-04-06 00:32:58,-0.6,73.08,82.65,74,4,5.59,light rain,0.022440944881889763,0.0
35,Guaruja,BR,2020-04-06 00:32:58,-23.99,-46.26,73.0,82,20,4.7,few clouds,0.022440944881889763,0.0
36,Tolaga Bay,NZ,2020-04-06 00:32:58,-38.37,178.3,62.08,62,82,10.83,light rain,0.00826771653543307,0.0
37,Qaqortoq,GL,2020-04-06 00:24:18,60.72,-46.03,24.8,45,55,6.93,broken clouds,0.00826771653543307,0.0
38,Hambantota,LK,2020-04-06 00:32:59,6.12,81.12,79.03,78,0,6.55,clear sky,0.00826771653543307,0.0
39,Tasiilaq,GL,2020-04-06 00:32:59,65.61,-37.64,15.8,47,100,4.7,overcast clouds,0.00826771653543307,0.0
40,Nybro,SE,2020-04-06 00:33:00,56.74,15.91,39.0,100,10,4.76,mist,0.00826771653543307,0.0
41,Kapaa,US,2020-04-06 00:30:36,22.08,-159.32,80.6,74,1,13.87,clear sky,0.00826771653543307,0.0
42,Bengkulu,ID,2020-04-06 00:33:00,-3.8,102.27,77.09,84,99,5.19,light rain,0.046456692913385826,0.0
43,Sitka,US,2020-04-06 00:33:00,57.05,-135.33,39.2,80,90,3.36,overcast clouds,0.046456692913385826,0.0
44,Semnan,IR,2020-04-06 00:33:00,35.57,53.4,49.59,37,0,3.0,clear sky,0.046456692913385826,0.0
45,Seddon,AU,2020-04-06 00:32:04,-37.81,144.89,60.01,71,90,10.29,overcast clouds,0.046456692913385826,0.0
46,Puerto Ayora,EC,2020-04-06 00:33:01,-0.74,-90.35,80.6,83,20,8.05,few clouds,0.046456692913385826,0.0
47,Touros,BR,2020-04-06 00:33:01,-5.2,-35.46,80.6,94,40,4.7,scattered clouds,0.046456692913385826,0.0
48,Yar-Sale,RU,2020-04-06 00:33:01,66.83,70.83,31.57,99,100,5.64,light snow,0.046456692913385826,0.011023622047244096
49,Longyearbyen,SJ,2020-04-06 00:33:01,78.22,15.64,-0.4,77,20,3.36,few clouds,0.046456692913385826,0.0
50,Monkey Hill,KN,2020-04-06 00:33:01,17.32,-62.72,82.0,83,24,5.82,few clouds,0.046456692913385826,0.0
51,Benjamin Hill,MX,2020-04-06 00:33:02,30.17,-111.1,80.01,21,45,8.01,scattered clouds,0.046456692913385826,0.0
52,Ushuaia,AR,2020-04-06 00:33:02,-54.8,-68.3,39.2,80,75,10.29,shower rain,0.046456692913385826,0.0
53,Lasa,IT,2020-04-06 00:33:02,46.62,10.7,39.99,80,5,5.26,clear sky,0.046456692913385826,0.0
54,Palkino,RU,2020-04-06 00:33:02,57.54,28.01,24.8,79,39,4.47,scattered clouds,0.046456692913385826,0.0
55,Bloemfontein,ZA,2020-04-06 00:33:02,-29.12,26.21,57.2,82,84,6.93,broken clouds,0.046456692913385826,0.0
56,San Quintin,MX,2020-04-06 00:33:02,30.48,-115.95,61.03,63,9,10.98,clear sky,0.046456692913385826,0.0
57,Pundaguitan,PH,2020-04-06 00:33:02,6.37,126.17,81.75,72,71,7.49,light rain,0.010629921259842521,0.0
58,Russell,US,2020-04-06 00:30:13,32.35,-85.2,77.0,77,1,2.73,clear sky,0.010629921259842521,0.0
59,Port Blair,IN,2020-04-06 00:33:03,11.67,92.75,81.59,74,66,8.88,broken clouds,0.010629921259842521,0.0
60,Hermanus,ZA,2020-04-06 00:33:03,-34.42,19.23,60.01,77,81,5.99,light rain,0.00826771653543307,0.0
61,Malazgirt,TR,2020-04-06 00:33:03,39.14,42.54,43.56,39,100,2.95,overcast clouds,0.00826771653543307,0.0
62,Punta Arenas,CL,2020-04-06 00:33:03,-53.15,-70.92,42.8,69,75,18.34,broken clouds,0.00826771653543307,0.0
63,Saint-Pierre,RE,2020-04-06 00:33:03,-21.34,55.48,73.4,78,25,4.7,scattered clouds,0.00826771653543307,0.0
64,Qaanaaq,GL,2020-04-06 00:33:03,77.48,-69.36,8.65,77,100,2.08,overcast clouds,0.00826771653543307,0.0
65,East London,ZA,2020-04-06 00:33:04,-33.02,27.91,68.68,74,100,13.22,overcast clouds,0.00826771653543307,0.0
66,Miyako,JP,2020-04-06 00:33:04,39.64,141.95,44.17,59,16,21.39,few clouds,0.00826771653543307,0.0
67,Lorengau,PG,2020-04-06 00:33:04,-2.02,147.27,83.59,74,82,10.71,light rain,0.06181102362204725,0.0
68,Port Elizabeth,ZA,2020-04-06 00:33:04,-33.92,25.57,64.4,77,82,14.99,broken clouds,0.06181102362204725,0.0
69,Eureka,US,2020-04-06 00:31:26,40.8,-124.16,53.6,66,1,6.93,clear sky,0.06181102362204725,0.0
70,Cherdyn,RU,2020-04-06 00:33:04,60.4,56.48,18.0,95,0,3.91,clear sky,0.06181102362204725,0.0
71,Broome,US,2020-04-06 00:21:30,42.25,-75.83,53.01,70,75,10.29,broken clouds,0.06181102362204725,0.0
72,Hilo,US,2020-04-06 00:33:04,19.73,-155.09,78.8,69,90,12.75,moderate rain,0.06181102362204725,0.0
73,Harer,ET,2020-04-06 00:33:04,9.31,42.13,62.47,31,0,8.72,clear sky,0.06181102362204725,0.0
74,Portobelo,PA,2020-04-06 00:33:05,9.55,-79.65,87.8,62,40,10.29,scattered clouds,0.06181102362204725,0.0
75,Stillwater,US,2020-04-06 00:33:05,36.12,-97.06,68.0,59,1,13.87,clear sky,0.06181102362204725,0.0
76,Menongue,AO,2020-04-06 00:29:05,-14.66,17.69,61.57,63,69,1.92,light rain,0.010236220472440946,0.0
77,Raga,SS,2020-04-06 00:33:05,8.46,25.68,73.85,56,78,6.71,broken clouds,0.010236220472440946,0.0
78,Dukhovshchina,RU,2020-04-06 00:33:05,55.19,32.41,29.39,88,0,4.79,clear sky,0.010236220472440946,0.0
79,Dhidhdhoo,MV,2020-04-06 00:19:23,6.88,73.1,83.73,70,48,5.41,scattered clouds,0.010236220472440946,0.0
80,Mirnyy,RU,2020-04-06 00:33:06,62.54,113.96,28.4,63,80,11.18,broken clouds,0.010236220472440946,0.0
81,Ostrovnoy,RU,2020-04-06 00:33:06,68.05,39.51,22.53,95,81,21.23,light snow,0.010236220472440946,0.016929133858267716
82,Saint-Augustin,CA,2020-04-06 00:33:06,51.23,-58.65,27.79,98,98,7.87,light snow,0.010236220472440946,0.023228346456692913
83,Kavaratti,IN,2020-04-06 00:33:06,10.57,72.64,82.65,71,60,4.74,broken clouds,0.010236220472440946,0.0
84,Taikang,CN,2020-04-06 00:33:06,46.83,124.42,38.55,69,75,18.97,broken clouds,0.010236220472440946,0.0
85,Mocuba,MZ,2020-04-06 00:33:06,-16.84,36.99,66.13,93,0,3.31,clear sky,0.010236220472440946,0.0
86,Lompoc,US,2020-04-06 00:33:07,34.64,-120.46,55.4,87,100,8.05,moderate rain,0.010236220472440946,0.0
87,Vestmanna,FO,2020-04-06 00:33:07,62.16,-7.17,48.2,87,100,20.8,light rain,0.010236220472440946,0.0
88,Thompson,CA,2020-04-06 00:33:07,55.74,-97.86,23.0,57,20,4.7,few clouds,0.010236220472440946,0.0
89,Aswan,EG,2020-04-06 00:33:07,24.09,32.91,75.45,23,0,11.07,clear sky,0.010236220472440946,0.0
90,San Jose De Sisa,PE,2020-04-06 00:33:08,-6.62,-76.69,75.47,73,86,1.72,light rain,0.03976377952755906,0.0
91,Mataura,NZ,2020-04-06 00:33:08,-46.19,168.86,60.01,90,100,5.01,light rain,0.013779527559055118,0.0
92,Ust-Kuyga,RU,2020-04-06 00:33:08,70.02,135.6,16.72,93,88,12.33,overcast clouds,0.013779527559055118,0.0
93,Faya,SA,2020-04-06 00:24:16,18.39,42.45,60.8,62,3,6.44,clear sky,0.013779527559055118,0.0
94,Quang Ngai,VN,2020-04-06 00:28:33,15.12,108.8,77.36,78,60,4.14,broken clouds,0.013779527559055118,0.0
95,Lagoa,PT,2020-04-06 00:33:09,39.05,-27.98,57.6,82,98,13.69,overcast clouds,0.013779527559055118,0.0
96,Nuuk,GL,2020-04-06 00:33:09,64.18,-51.72,24.8,58,0,2.24,clear sky,0.013779527559055118,0.0
97,Tiksi,RU,2020-04-06 00:33:09,71.69,128.87,20.32,93,95,24.85,overcast clouds,0.013779527559055118,0.0
98,Terney,RU,2020-04-06 00:33:09,45.05,136.61,41.56,66,96,7.81,overcast clouds,0.013779527559055118,0.0
99,Ponta Delgada,PT,2020-04-06 00:33:09,37.73,-25.67,59.0,87,75,2.24,broken clouds,0.013779527559055118,0.0
100,Mar Del Plata,AR,2020-04-06 00:32:13,-38.0,-57.56,66.99,77,81,9.66,light rain,0.02874015748031496,0.0
101,Tuktoyaktuk,CA,2020-04-06 00:33:09,69.45,-133.04,26.6,79,75,25.28,light snow,0.02874015748031496,0.0
102,Kalmunai,LK,2020-04-06 00:33:09,7.42,81.82,79.21,77,6,3.56,clear sky,0.02874015748031496,0.0
103,Oranjestad,AW,2020-04-06 00:33:09,12.52,-70.03,82.4,78,40,21.92,scattered clouds,0.02874015748031496,0.0
104,Castro,BR,2020-04-06 00:33:10,-24.79,-50.01,60.98,61,10,2.77,clear sky,0.02874015748031496,0.0
105,Rantepao,ID,2020-04-06 00:30:17,-2.97,119.9,74.53,63,77,0.47,broken clouds,0.02874015748031496,0.0
106,Nyagan,RU,2020-04-06 00:33:10,62.14,65.39,28.63,97,100,6.15,overcast clouds,0.02874015748031496,0.0
107,Vila Franca Do Campo,PT,2020-04-06 00:21:10,37.72,-25.43,57.2,93,75,3.36,broken clouds,0.02874015748031496,0.0
108,Tuntum,BR,2020-04-06 00:33:10,-5.26,-44.65,76.95,91,100,2.33,light rain,0.10196850393700788,0.0
109,Unisan,PH,2020-04-06 00:33:10,13.84,121.98,82.0,77,16,5.01,light rain,0.01968503937007874,0.0
110,Georgetown,MY,2020-04-06 00:33:11,5.41,100.34,78.8,94,20,3.36,few clouds,0.01968503937007874,0.0
111,Marsh Harbour,BS,2020-04-06 00:33:11,26.54,-77.06,70.21,79,82,21.0,light rain,0.014173228346456693,0.0
112,Yulara,AU,2020-04-06 00:23:25,-25.24,130.99,69.8,30,94,12.75,overcast clouds,0.014173228346456693,0.0
113,New Norfolk,AU,2020-04-06 00:33:11,-42.78,147.06,57.0,54,75,11.41,broken clouds,0.014173228346456693,0.0
114,Krasnyy Chikoy,RU,2020-04-06 00:33:11,50.36,108.75,35.55,52,74,5.7,broken clouds,0.014173228346456693,0.0
115,Cocorit,MX,2020-04-06 00:33:11,27.58,-109.97,80.6,32,75,9.17,broken clouds,0.014173228346456693,0.0
116,Nikolskoye,RU,2020-04-06 00:33:12,59.7,30.79,28.4,79,37,2.24,scattered clouds,0.014173228346456693,0.0
117,Mount Isa,AU,2020-04-06 00:24:03,-20.73,139.5,77.0,23,77,12.75,broken clouds,0.014173228346456693,0.0
118,Marzuq,YE,2020-04-06 00:33:12,14.4,46.47,72.05,27,0,3.56,clear sky,0.014173228346456693,0.0
119,Khatanga,RU,2020-04-06 00:33:12,71.97,102.5,27.46,98,95,14.52,overcast clouds,0.014173228346456693,0.0
120,Lyubim,RU,2020-04-06 00:33:12,58.36,40.68,27.77,91,49,8.95,scattered clouds,0.014173228346456693,0.0
121,Bulgan,MN,2020-04-06 00:33:12,48.81,103.53,26.69,53,85,3.11,overcast clouds,0.014173228346456693,0.0
122,Makakilo City,US,2020-04-06 00:33:12,21.35,-158.09,82.4,69,1,8.05,clear sky,0.014173228346456693,0.0
123,Besao,PH,2020-04-06 00:33:13,17.09,120.86,67.35,59,68,1.41,broken clouds,0.014173228346456693,0.0
124,Atambua,ID,2020-04-06 00:23:55,-9.11,124.89,79.75,67,9,1.61,clear sky,0.014173228346456693,0.0
125,Hartselle,US,2020-04-06 00:33:13,34.44,-86.94,73.4,49,1,5.32,clear sky,0.014173228346456693,0.0
126,Fortuna,US,2020-04-06 00:33:13,40.6,-124.16,53.6,57,20,16.11,few clouds,0.014173228346456693,0.0
127,Geraldton,AU,2020-04-06 00:31:07,-28.77,114.6,70.0,77,0,8.05,clear sky,0.014173228346456693,0.0
128,Pisco,PE,2020-04-06 00:23:52,-13.7,-76.22,73.4,83,0,16.11,clear sky,0.014173228346456693,0.0
129,Sangar,RU,2020-04-06 00:33:13,63.92,127.47,14.52,92,77,3.38,broken clouds,0.014173228346456693,0.0
130,Pangnirtung,CA,2020-04-06 00:33:14,66.15,-65.71,8.02,75,0,5.37,clear sky,0.014173228346456693,0.0
131,Rabinal,GT,2020-04-06 00:33:14,15.1,-90.45,73.4,73,75,3.36,haze,0.014173228346456693,0.0
132,Avarua,CK,2020-04-06 00:33:14,-21.21,-159.78,82.4,83,75,5.82,broken clouds,0.014173228346456693,0.0
133,Wanaka,NZ,2020-04-06 00:33:14,-44.7,169.15,61.05,57,100,7.96,light rain,0.010629921259842521,0.0
134,Teya,RU,2020-04-06 00:33:14,60.38,92.63,22.59,92,93,3.85,overcast clouds,0.010629921259842521,0.0
135,Delta,NG,2020-04-06 00:23:14,5.5,6.0,77.45,87,3,2.62,light rain,0.014566929133858268,0.0
136,Aklavik,CA,2020-04-06 00:33:14,68.22,-135.01,33.8,55,75,13.87,broken clouds,0.014566929133858268,0.0
137,Praia Da Vitoria,PT,2020-04-06 00:33:15,38.73,-27.07,55.4,87,75,12.82,broken clouds,0.014566929133858268,0.0
138,Preston,GB,2020-04-06 00:31:05,53.77,-2.72,60.01,67,85,19.46,overcast clouds,0.014566929133858268,0.0
139,Hindupur,IN,2020-04-06 00:33:15,13.83,77.49,74.01,60,73,6.42,broken clouds,0.014566929133858268,0.0
140,Faanui,PF,2020-04-06 00:33:15,-16.48,-151.75,83.53,72,2,8.52,clear sky,0.014566929133858268,0.0
141,Illapel,CL,2020-04-06 00:33:15,-31.63,-71.17,59.25,60,0,3.11,clear sky,0.014566929133858268,0.0
142,Karsava,LV,2020-04-06 00:33:15,56.78,27.69,32.99,84,40,4.23,scattered clouds,0.014566929133858268,0.0
143,Elesbao Veloso,BR,2020-04-06 00:33:15,-6.2,-42.14,77.18,82,100,2.75,light rain,0.03307086614173228,0.0
144,Yellowknife,CA,2020-04-06 00:30:13,62.46,-114.35,23.0,49,20,11.41,few clouds,0.03307086614173228,0.0
145,Kaitangata,NZ,2020-04-06 00:33:15,-46.28,169.85,57.99,90,100,1.01,light rain,0.004724409448818898,0.0
146,Iqaluit,CA,2020-04-06 00:33:15,63.75,-68.51,1.4,70,40,16.11,scattered clouds,0.004724409448818898,0.0
147,Souillac,MU,2020-04-06 00:33:16,-20.52,57.52,78.8,74,40,9.17,scattered clouds,0.004724409448818898,0.0
148,Santa Maria,BR,2020-04-06 00:24:20,-29.68,-53.81,73.4,53,54,2.24,broken clouds,0.004724409448818898,0.0
149,Chipinge,ZW,2020-04-06 00:33:16,-20.19,32.62,61.12,61,12,3.78,few clouds,0.004724409448818898,0.0
150,Upernavik,GL,2020-04-06 00:33:17,72.79,-56.15,12.7,80,87,3.36,overcast clouds,0.004724409448818898,0.0
151,Nishihara,JP,2020-04-06 00:21:46,26.18,127.76,69.8,63,75,6.93,broken clouds,0.004724409448818898,0.0
152,Anyksciai,LT,2020-04-06 00:33:17,55.53,25.1,36.72,85,26,4.68,scattered clouds,0.004724409448818898,0.0
153,Batagay,RU,2020-04-06 00:33:17,67.63,134.63,17.85,90,86,6.67,overcast clouds,0.004724409448818898,0.0
154,Torbay,CA,2020-04-06 00:33:17,47.67,-52.73,28.0,85,75,3.36,broken clouds,0.004724409448818898,0.0
155,Praia,CV,2020-04-06 00:23:35,14.92,-23.51,71.6,73,20,20.8,few clouds,0.004724409448818898,0.0
156,Monte Alegre,BR,2020-04-06 00:33:17,-2.01,-54.07,79.5,84,84,5.08,broken clouds,0.004724409448818898,0.0
157,Tonstad,NO,2020-04-06 00:33:17,58.66,6.72,53.6,50,100,24.16,overcast clouds,0.004724409448818898,0.0
158,Tessalit,ML,2020-04-06 00:33:17,20.2,1.01,77.61,13,0,8.37,clear sky,0.004724409448818898,0.0
159,Sao Joao Da Barra,BR,2020-04-06 00:33:17,-21.64,-41.05,75.13,74,88,5.48,overcast clouds,0.004724409448818898,0.0
160,Albany,US,2020-04-06 00:30:24,42.6,-73.97,55.4,54,75,13.87,broken clouds,0.004724409448818898,0.0
161,Ribeira Grande,PT,2020-04-06 00:33:17,38.52,-28.7,59.07,84,79,11.48,broken clouds,0.004724409448818898,0.0
162,Aragarcas,BR,2020-04-06 00:33:18,-15.9,-52.25,79.18,71,21,1.7,few clouds,0.004724409448818898,0.0
163,Junction City,US,2020-04-06 00:32:22,39.03,-96.83,60.8,54,90,12.75,overcast clouds,0.004724409448818898,0.0
164,Ancud,CL,2020-04-06 00:23:57,-41.87,-73.82,46.4,75,20,5.82,few clouds,0.004724409448818898,0.0
165,College,US,2020-04-06 00:33:18,64.86,-147.8,35.6,37,75,16.11,broken clouds,0.004724409448818898,0.0
166,Constitucion,CL,2020-04-06 00:23:19,-35.33,-72.42,56.32,69,0,14.65,clear sky,0.004724409448818898,0.0
167,Jaru,BR,2020-04-06 00:33:18,-10.44,-62.47,77.22,87,93,1.39,light rain,0.10866141732283464,0.0
168,Canon City,US,2020-04-06 00:33:19,38.44,-105.24,73.99,22,75,5.82,broken clouds,0.10866141732283464,0.0
169,Tual,ID,2020-04-06 00:33:19,-5.67,132.75,83.39,71,88,4.14,light rain,0.01141732283464567,0.0
170,Anju,KP,2020-04-06 00:33:19,39.62,125.66,45.39,49,0,3.22,clear sky,0.01141732283464567,0.0
171,Alice Springs,AU,2020-04-06 00:21:17,-23.7,133.88,68.0,37,75,10.29,broken clouds,0.01141732283464567,0.0
172,Severo-Kurilsk,RU,2020-04-06 00:33:20,50.68,156.12,34.0,88,47,16.42,scattered clouds,0.01141732283464567,0.0
173,Port Augusta,AU,2020-04-06 00:33:20,-32.5,137.77,64.99,77,40,4.7,scattered clouds,0.01141732283464567,0.0
174,Pevek,RU,2020-04-06 00:33:20,69.7,170.31,-4.49,90,87,7.05,overcast clouds,0.01141732283464567,0.0
175,Daru,PG,2020-04-06 00:24:03,-9.08,143.21,83.41,70,61,8.99,broken clouds,0.01141732283464567,0.0
176,Uyuni,BO,2020-04-06 00:33:21,-20.46,-66.83,58.01,11,35,10.8,scattered clouds,0.01141732283464567,0.0
177,Kidal,ML,2020-04-06 00:33:21,18.44,1.41,81.84,11,0,10.6,clear sky,0.01141732283464567,0.0
178,Gorontalo,ID,2020-04-06 00:30:32,0.54,123.06,81.16,76,33,3.0,scattered clouds,0.01141732283464567,0.0
179,Aksu,CN,2020-04-06 00:24:20,41.12,80.26,51.22,27,19,2.42,few clouds,0.01141732283464567,0.0
180,Saint George,US,2020-04-06 00:30:41,37.1,-113.58,71.6,21,1,24.16,clear sky,0.01141732283464567,0.0
181,Sinnamary,GF,2020-04-06 00:33:22,5.38,-52.95,79.95,83,97,15.14,light rain,0.004724409448818898,0.0
182,Andenes,NO,2020-04-06 00:24:04,69.31,16.12,27.0,73,83,8.05,broken clouds,0.004724409448818898,0.0
183,Westport,US,2020-04-06 00:28:54,41.14,-73.36,55.99,87,75,3.36,broken clouds,0.004724409448818898,0.0
184,Fort Nelson,CA,2020-04-06 00:21:24,58.81,-122.7,33.8,34,40,8.05,scattered clouds,0.004724409448818898,0.0
185,Kapit,MY,2020-04-06 00:33:23,2.02,112.93,74.55,94,99,1.99,moderate rain,0.1456692913385827,0.0
186,Klaksvik,FO,2020-04-06 00:33:23,62.23,-6.59,48.2,87,100,20.8,light rain,0.1456692913385827,0.0
187,Aosta,IT,2020-04-06 00:33:23,45.77,7.42,52.0,52,0,6.64,clear sky,0.1456692913385827,0.0
188,Laguna,US,2020-04-06 00:33:23,38.42,-121.42,55.0,71,90,5.82,overcast clouds,0.1456692913385827,0.0
189,Macusani,PE,2020-04-06 00:33:23,-14.08,-70.43,37.72,24,94,0.63,light rain,0.022440944881889763,0.0
190,Tanout,NE,2020-04-06 00:30:36,14.97,8.89,84.99,11,95,7.23,overcast clouds,0.022440944881889763,0.0
191,Kenai,US,2020-04-06 00:18:48,60.55,-151.26,39.99,59,1,20.8,clear sky,0.022440944881889763,0.0
192,Qasigiannguit,GL,2020-04-06 00:33:24,68.82,-51.19,15.8,31,0,24.16,clear sky,0.022440944881889763,0.0
193,Laramie,US,2020-04-06 00:33:24,41.31,-105.59,60.8,23,20,20.8,few clouds,0.022440944881889763,0.0
194,Mae Sai,TH,2020-04-06 00:33:24,20.43,99.88,72.0,77,5,3.36,mist,0.022440944881889763,0.0
195,Waipawa,NZ,2020-04-06 00:33:24,-41.41,175.52,66.2,55,55,11.41,broken clouds,0.022440944881889763,0.0
196,Rosario Do Sul,BR,2020-04-06 00:33:24,-30.26,-54.91,72.14,42,92,4.12,overcast clouds,0.022440944881889763,0.0
197,Nebolchi,RU,2020-04-06 00:33:24,59.12,33.35,27.63,87,45,6.15,scattered clouds,0.022440944881889763,0.0
198,Bathsheba,BB,2020-04-06 00:33:24,13.22,-59.52,80.6,78,40,13.87,scattered clouds,0.022440944881889763,0.0
199,Flinders,AU,2020-04-06 00:33:25,-34.58,150.86,73.0,49,75,11.41,light intensity shower rain,0.022440944881889763,0.0
200,Fukuma,JP,2020-04-06 00:33:25,33.77,130.47,57.99,50,1,2.24,clear sky,0.022440944881889763,0.0
201,Namatanai,PG,2020-04-06 00:33:25,-3.67,152.43,83.01,72,29,7.2,light rain,0.060629921259842526,0.0
202,Chiredzi,ZW,2020-04-06 00:33:25,-21.05,31.67,67.44,61,0,4.97,clear sky,0.060629921259842526,0.0
203,Slidell,US,2020-04-06 00:33:25,30.28,-89.78,75.2,56,1,5.82,clear sky,0.060629921259842526,0.0
204,Mokrousovo,RU,2020-04-06 00:33:26,55.81,66.77,35.89,86,54,8.14,broken clouds,0.060629921259842526,0.0
205,Kaeo,NZ,2020-04-06 00:33:26,-35.1,173.78,66.0,73,96,3.0,light rain,0.009448818897637795,0.0
206,Divnoye,RU,2020-04-06 00:33:26,45.91,43.35,39.6,67,4,8.1,clear sky,0.009448818897637795,0.0
207,Monrovia,LR,2020-04-06 00:22:01,6.3,-10.8,81.55,87,42,6.89,scattered clouds,0.009448818897637795,0.0
208,Basco,PH,2020-04-06 00:33:26,20.45,121.97,76.08,84,60,21.81,light rain,0.029133858267716535,0.0
209,Puerto Baquerizo Moreno,EC,2020-04-06 00:33:27,-0.9,-89.6,82.4,78,75,11.41,broken clouds,0.029133858267716535,0.0
210,Antofagasta,CL,2020-04-06 00:33:27,-23.65,-70.4,66.2,82,6,5.82,clear sky,0.029133858267716535,0.0
211,Lebu,CL,2020-04-06 00:33:27,-37.62,-73.65,55.2,80,0,10.18,clear sky,0.029133858267716535,0.0
212,Karpathos,GR,2020-04-06 00:33:27,35.51,27.21,59.0,82,40,14.99,scattered clouds,0.029133858267716535,0.0
213,Saldanha,ZA,2020-04-06 00:33:28,-33.01,17.94,60.8,87,74,2.24,light rain,0.007480314960629922,0.0
214,Chuy,UY,2020-04-06 00:33:28,-33.7,-53.46,68.38,71,88,12.68,overcast clouds,0.007480314960629922,0.0
215,Sainte-Anne-Des-Monts,CA,2020-04-06 00:33:28,49.12,-66.49,36.77,88,94,5.28,light rain,0.024015748031496063,0.0
216,Arona,ES,2020-04-06 00:33:28,28.1,-16.68,71.01,77,20,4.7,few clouds,0.024015748031496063,0.0
217,Narsaq,GL,2020-04-06 00:23:40,60.92,-46.05,24.8,45,51,6.93,broken clouds,0.024015748031496063,0.0
218,San Cristobal,VE,2020-04-06 00:22:07,7.77,-72.22,87.8,62,40,9.17,scattered clouds,0.024015748031496063,0.0
219,Diffa,NE,2020-04-06 00:33:28,13.32,12.61,84.76,16,29,4.29,scattered clouds,0.024015748031496063,0.0
220,Izumo,JP,2020-04-06 00:33:29,35.37,132.77,48.2,70,20,3.36,few clouds,0.024015748031496063,0.0
221,Kurilsk,RU,2020-04-06 00:23:36,45.23,147.88,35.44,89,95,8.43,overcast clouds,0.024015748031496063,0.0
222,Nanortalik,GL,2020-04-06 00:33:29,60.14,-45.24,22.5,79,62,8.95,broken clouds,0.024015748031496063,0.0
223,Kavieng,PG,2020-04-06 00:33:29,-2.57,150.8,83.59,73,75,8.63,moderate rain,0.11850393700787401,0.0
224,Grindavik,IS,2020-04-06 00:29:04,63.84,-22.43,42.8,86,90,21.92,light rain,0.11850393700787401,0.0
225,Moron,AR,2020-04-06 00:31:43,-34.65,-58.62,71.01,73,75,3.36,thunderstorm,0.11850393700787401,0.0
226,Saint-Joseph,RE,2020-04-06 00:33:29,-21.37,55.62,73.4,78,18,4.7,few clouds,0.11850393700787401,0.0
227,Jaffna,LK,2020-04-06 00:30:55,9.67,80.01,81.73,82,23,10.92,few clouds,0.11850393700787401,0.0
228,Ketchikan,US,2020-04-06 00:33:29,55.34,-131.65,46.4,33,1,13.87,clear sky,0.11850393700787401,0.0
229,Sao Felix Do Xingu,BR,2020-04-06 00:33:30,-6.64,-51.99,76.8,88,30,2.46,light rain,0.015354330708661419,0.0
230,Coahuayana,MX,2020-04-06 00:33:32,18.73,-103.68,82.4,42,20,11.41,few clouds,0.015354330708661419,0.0
231,Chara,RU,2020-04-06 00:33:32,56.91,118.26,22.46,83,95,2.44,overcast clouds,0.015354330708661419,0.0
232,Banatsko Novo Selo,RS,2020-04-06 00:33:32,44.99,20.78,55.4,56,68,3.36,broken clouds,0.015354330708661419,0.0
233,Mana,GF,2020-04-06 00:33:32,5.66,-53.78,78.67,84,98,10.6,overcast clouds,0.015354330708661419,0.0
234,Gazojak,TM,2020-04-06 00:33:32,41.19,61.4,54.73,36,72,12.19,broken clouds,0.015354330708661419,0.0
235,Butaritari,KI,2020-04-06 00:33:32,3.07,172.79,83.14,74,25,9.69,scattered clouds,0.015354330708661419,0.0
236,Borovoy,RU,2020-04-06 00:33:32,55.43,86.08,32.0,92,0,6.71,clear sky,0.015354330708661419,0.0
237,Porto Novo,BJ,2020-04-06 00:33:32,6.5,2.6,82.6,80,61,8.55,broken clouds,0.015354330708661419,0.0
238,Mizoch,UA,2020-04-06 00:33:33,50.4,26.15,36.36,67,0,4.52,clear sky,0.015354330708661419,0.0
239,Buzmeyin,TM,2020-04-06 00:33:33,38.05,58.21,53.6,81,90,6.93,overcast clouds,0.015354330708661419,0.0
240,Hay River,CA,2020-04-06 00:30:44,60.82,-115.8,15.8,61,20,9.17,few clouds,0.015354330708661419,0.0
241,Struer,DK,2020-04-06 00:33:35,56.49,8.58,46.4,61,55,8.05,broken clouds,0.015354330708661419,0.0
242,Suntar,RU,2020-04-06 00:33:35,62.14,117.63,31.48,93,63,9.24,broken clouds,0.015354330708661419,0.0
243,Cap Malheureux,MU,2020-04-06 00:33:35,-19.98,57.61,78.8,74,40,9.17,scattered clouds,0.015354330708661419,0.0
244,Marawi,PH,2020-04-06 00:33:35,8.0,124.29,75.63,64,82,2.46,broken clouds,0.015354330708661419,0.0
245,Vardo,NO,2020-04-06 00:21:41,70.37,31.11,21.2,73,86,13.87,light snow,0.015354330708661419,0.006692913385826772
246,Chokurdakh,RU,2020-04-06 00:33:35,70.63,147.92,7.41,94,81,7.85,broken clouds,0.015354330708661419,0.0
247,Sechura,PE,2020-04-06 00:33:36,-5.56,-80.82,77.52,67,38,12.86,scattered clouds,0.015354330708661419,0.0
248,Pangai,TO,2020-04-06 00:27:53,-19.8,-174.35,82.4,69,75,11.41,broken clouds,0.015354330708661419,0.0
249,Saint-Philippe,RE,2020-04-06 00:33:36,-21.36,55.77,73.4,78,16,4.7,light rain,0.004724409448818898,0.0
250,Kungurtug,RU,2020-04-06 00:33:36,50.6,97.52,29.3,58,99,6.2,light snow,0.004724409448818898,0.046850393700787404
251,Codrington,AU,2020-04-06 00:33:36,-38.27,141.97,57.09,61,37,6.82,scattered clouds,0.004724409448818898,0.0
252,Kondagaon,IN,2020-04-06 00:33:36,19.6,81.67,73.74,39,1,1.74,clear sky,0.004724409448818898,0.0
253,Vilyuysk,RU,2020-04-06 00:33:36,63.76,121.62,30.42,97,83,11.01,broken clouds,0.004724409448818898,0.0
254,Ilulissat,GL,2020-04-06 00:33:36,69.22,-51.1,15.8,31,0,24.16,clear sky,0.004724409448818898,0.0
255,Port Lincoln,AU,2020-04-06 00:33:37,-34.73,135.87,63.55,71,71,5.23,light rain,0.007874015748031498,0.0
256,Mangrol,IN,2020-04-06 00:33:37,21.12,70.12,76.33,69,4,12.12,clear sky,0.007874015748031498,0.0
257,Esperance,AU,2020-04-06 00:33:37,-33.87,121.9,59.0,77,90,9.17,overcast clouds,0.007874015748031498,0.0
258,Oranjemund,NA,2020-04-06 00:33:38,-28.55,16.43,55.63,90,23,1.05,few clouds,0.007874015748031498,0.0
259,Kieta,PG,2020-04-06 00:33:40,-6.22,155.63,84.49,66,27,1.88,scattered clouds,0.007874015748031498,0.0
260,Petropavlovsk-Kamchatskiy,RU,2020-04-06 00:33:40,53.05,158.65,33.8,37,0,2.24,clear sky,0.007874015748031498,0.0
261,Puerto Escondido,MX,2020-04-06 00:33:40,15.85,-97.07,82.4,83,40,3.36,scattered clouds,0.007874015748031498,0.0
262,General Roca,AR,2020-04-06 00:33:40,-39.03,-67.58,62.6,39,11,12.75,few clouds,0.007874015748031498,0.0
263,Inhambane,MZ,2020-04-06 00:33:40,-23.86,35.38,73.62,82,0,8.7,light rain,0.01141732283464567,0.0
264,Hella,NO,2020-04-06 00:33:40,67.2,14.43,30.99,50,100,23.04,overcast clouds,0.01141732283464567,0.0
265,Cidreira,BR,2020-04-06 00:33:42,-30.18,-50.21,70.5,82,5,17.18,clear sky,0.01141732283464567,0.0
266,Komsomolskiy,UZ,2020-04-06 00:33:42,40.43,71.72,55.4,76,53,4.7,broken clouds,0.01141732283464567,0.0
267,Chicama,PE,2020-04-06 00:24:26,-7.84,-79.15,77.31,64,43,6.71,scattered clouds,0.01141732283464567,0.0
268,Kinshasa,CD,2020-04-06 00:33:42,-4.32,15.32,77.0,83,75,2.06,broken clouds,0.01141732283464567,0.0
269,Collie,AU,2020-04-06 00:33:42,-33.37,116.15,68.0,37,58,11.99,broken clouds,0.01141732283464567,0.0
270,Vila Real,PT,2020-04-06 00:33:42,41.3,-7.74,55.0,96,87,2.66,light rain,0.005905511811023622,0.0
271,Calama,CL,2020-04-06 00:31:28,-22.47,-68.93,64.4,45,1,16.11,clear sky,0.005905511811023622,0.0
272,Prudentopolis,BR,2020-04-06 00:33:42,-25.21,-50.98,63.05,55,18,0.92,few clouds,0.005905511811023622,0.0
273,Kyakhta,RU,2020-04-06 00:33:42,50.35,106.45,29.84,63,43,11.52,scattered clouds,0.005905511811023622,0.0
274,Lons,FR,2020-04-06 00:33:45,43.32,-0.4,60.8,67,75,2.24,broken clouds,0.005905511811023622,0.0
275,Saint-Francois,FR,2020-04-06 00:33:45,46.42,3.91,44.6,56,0,3.36,clear sky,0.005905511811023622,0.0
276,Mizan Teferi,ET,2020-04-06 00:33:45,6.98,35.58,64.02,53,75,3.67,broken clouds,0.005905511811023622,0.0
277,Athabasca,CA,2020-04-06 00:33:45,54.72,-113.29,22.66,92,100,9.84,light snow,0.005905511811023622,0.03346456692913386
278,Bull Savanna,JM,2020-04-06 00:33:45,17.89,-77.59,76.17,78,43,4.41,scattered clouds,0.005905511811023622,0.0
279,Noumea,NC,2020-04-06 00:20:06,-22.28,166.46,87.8,45,20,11.41,few clouds,0.005905511811023622,0.0
280,Methoni,GR,2020-04-06 00:33:46,36.82,21.7,55.99,76,98,1.12,light rain,0.044094488188976384,0.0
281,Benjamin Constant,BR,2020-04-06 00:33:46,-4.38,-70.03,77.0,100,40,0.85,scattered clouds,0.044094488188976384,0.0
282,Boppard,DE,2020-04-06 00:33:46,50.23,7.59,53.01,52,0,11.41,clear sky,0.044094488188976384,0.0
283,Beloha,MG,2020-04-06 00:33:46,-25.17,45.05,72.43,62,65,8.57,broken clouds,0.044094488188976384,0.0
284,Skjervoy,NO,2020-04-06 00:33:46,70.03,20.97,30.74,89,80,13.73,light snow,0.044094488188976384,0.00826771653543307
285,Seminole,US,2020-04-06 00:33:46,28.71,-81.21,66.0,88,90,6.93,overcast clouds,0.044094488188976384,0.0
286,Wanning,CN,2020-04-06 00:31:09,18.8,110.4,75.63,86,55,7.0,light rain,0.05590551181102362,0.0
287,Birjand,IR,2020-04-06 00:33:47,32.87,59.22,42.8,75,0,4.7,clear sky,0.05590551181102362,0.0
288,Tuatapere,NZ,2020-04-06 00:33:47,-46.13,167.68,60.01,90,100,5.01,overcast clouds,0.05590551181102362,0.0
289,Nome,US,2020-04-06 00:30:38,64.5,-165.41,10.4,85,90,31.09,light snow,0.05590551181102362,0.0
290,Mahibadhoo,MV,2020-04-06 00:33:47,3.78,72.97,83.8,71,64,7.58,light rain,0.010629921259842521,0.0
291,Kindu,CD,2020-04-06 00:33:47,-2.95,25.95,69.73,74,60,1.83,broken clouds,0.010629921259842521,0.0
292,Guerrero Negro,MX,2020-04-06 00:33:47,27.98,-114.06,62.33,64,100,16.02,overcast clouds,0.010629921259842521,0.0
293,Manzanillo,CU,2020-04-06 00:33:47,20.34,-77.12,77.77,74,29,3.91,scattered clouds,0.010629921259842521,0.0
294,Nagod,IN,2020-04-06 00:33:47,24.57,80.6,75.6,20,0,2.89,clear sky,0.010629921259842521,0.0
295,Ayan,RU,2020-04-06 00:33:48,56.45,138.17,29.66,94,100,3.96,overcast clouds,0.010629921259842521,0.0
296,La Reforma,MX,2020-04-06 00:33:48,25.08,-108.05,86.0,30,75,6.93,broken clouds,0.010629921259842521,0.0
297,San Matias,BO,2020-04-06 00:33:48,-16.37,-58.4,79.21,80,100,3.65,overcast clouds,0.010629921259842521,0.0
298,Meulaboh,ID,2020-04-06 00:33:48,4.14,96.13,79.5,79,99,2.3,moderate rain,0.14724409448818898,0.0
299,Vila Velha,BR,2020-04-06 00:31:00,-20.33,-40.29,77.0,73,75,5.82,broken clouds,0.14724409448818898,0.0
300,Ossora,RU,2020-04-06 00:33:48,59.24,163.07,23.7,91,69,7.14,broken clouds,0.14724409448818898,0.0
301,George Town,MY,2020-04-06 00:33:49,5.41,100.34,78.8,94,20,3.36,few clouds,0.14724409448818898,0.0
302,Olafsvik,IS,2020-04-06 00:33:49,64.89,-23.71,34.38,92,100,47.22,moderate rain,0.19173228346456694,0.0
303,Provideniya,RU,2020-04-06 00:33:49,64.38,-173.3,10.4,72,100,15.66,overcast clouds,0.19173228346456694,0.0
304,Salalah,OM,2020-04-06 00:33:49,17.02,54.09,77.0,73,0,3.36,clear sky,0.19173228346456694,0.0
305,Nizhnevartovsk,RU,2020-04-06 00:33:49,60.93,76.55,35.6,80,90,8.95,light rain,0.19173228346456694,0.0
306,Nancha,CN,2020-04-06 00:33:49,47.13,129.27,44.94,43,40,2.75,scattered clouds,0.19173228346456694,0.0
307,Tarakan,ID,2020-04-06 00:33:49,3.3,117.63,80.06,81,9,1.54,light rain,0.07952755905511812,0.0
308,Bubaque,GW,2020-04-06 00:23:55,11.28,-15.83,79.25,70,0,12.39,clear sky,0.07952755905511812,0.0
309,Kruisfontein,ZA,2020-04-06 00:33:50,-34.0,24.73,61.11,75,82,11.68,broken clouds,0.07952755905511812,0.0
310,High Level,CA,2020-04-06 00:33:50,58.52,-117.14,30.2,46,40,10.29,scattered clouds,0.07952755905511812,0.0
311,Carnarvon,AU,2020-04-06 00:33:50,-24.87,113.63,75.2,83,16,12.75,few clouds,0.07952755905511812,0.0
312,Vao,NC,2020-04-06 00:33:50,-22.67,167.48,77.2,77,100,19.57,overcast clouds,0.07952755905511812,0.0
313,Ghanzi,BW,2020-04-06 00:33:50,-21.57,21.78,67.68,29,0,3.67,clear sky,0.07952755905511812,0.0
314,Raudeberg,NO,2020-04-06 00:33:50,61.99,5.14,53.01,56,100,25.28,overcast clouds,0.07952755905511812,0.0
315,Rusape,ZW,2020-04-06 00:33:51,-18.53,32.13,57.83,60,7,4.12,clear sky,0.07952755905511812,0.0
316,Coquimbo,CL,2020-04-06 00:33:51,-29.95,-71.34,60.8,82,0,2.24,clear sky,0.07952755905511812,0.0
317,Cayenne,GF,2020-04-06 00:33:51,4.93,-52.33,82.4,78,75,9.17,broken clouds,0.07952755905511812,0.0
318,Mount Gambier,AU,2020-04-06 00:33:51,-37.83,140.77,55.4,82,90,3.36,overcast clouds,0.07952755905511812,0.0
319,Jacareacanga,BR,2020-04-06 00:33:51,-6.22,-57.75,77.4,91,79,2.64,light rain,0.024409448818897637,0.0
320,Bongandanga,CD,2020-04-06 00:33:51,1.5,21.05,71.31,87,100,1.1,overcast clouds,0.024409448818897637,0.0
321,Esna,EG,2020-04-06 00:33:51,25.29,32.55,75.2,41,0,2.24,haze,0.024409448818897637,0.0
322,Kerewan,GM,2020-04-06 00:33:51,13.49,-16.09,73.4,73,0,11.41,clear sky,0.024409448818897637,0.0
323,Acapulco,MX,2020-04-06 00:30:02,16.86,-99.89,82.4,74,20,5.82,few clouds,0.024409448818897637,0.0
324,Qui Nhon,VN,2020-04-06 00:24:19,13.77,109.23,78.57,76,30,2.98,light rain,0.007086614173228346,0.0
325,Dzhuryn,UA,2020-04-06 00:33:52,49.03,25.58,37.92,62,0,7.61,clear sky,0.007086614173228346,0.0
326,Caravelas,BR,2020-04-06 00:33:52,-17.71,-39.25,77.9,80,38,12.44,scattered clouds,0.007086614173228346,0.0
327,Shimoda,JP,2020-04-06 00:33:52,34.67,138.95,55.4,50,20,3.36,few clouds,0.007086614173228346,0.0
328,Bonavista,CA,2020-04-06 00:30:38,48.65,-53.11,28.0,85,2,1.01,clear sky,0.007086614173228346,0.0
329,Haines Junction,CA,2020-04-06 00:30:10,60.75,-137.51,30.81,72,76,9.1,broken clouds,0.007086614173228346,0.0
330,Saskylakh,RU,2020-04-06 00:33:52,71.92,114.08,18.75,96,94,7.54,light snow,0.007086614173228346,0.004330708661417323
331,Evensk,RU,2020-04-06 00:33:52,61.95,159.23,10.09,89,83,3.13,broken clouds,0.007086614173228346,0.0
332,Trybukhivtsi,UA,2020-04-06 00:33:52,49.04,25.46,37.96,62,0,7.72,clear sky,0.007086614173228346,0.0
333,Datong,CN,2020-04-06 00:29:02,40.09,113.29,50.63,30,0,4.47,clear sky,0.007086614173228346,0.0
334,San Nicolas,PH,2020-04-06 00:33:53,18.17,120.6,80.6,74,40,2.24,scattered clouds,0.007086614173228346,0.0
335,Amod,IN,2020-04-06 00:33:53,21.98,72.9,77.83,44,0,4.03,clear sky,0.007086614173228346,0.0
336,Valparaiso,CL,2020-04-06 00:33:53,-33.04,-71.63,59.0,72,0,5.82,clear sky,0.007086614173228346,0.0
337,Lithakia,GR,2020-04-06 00:33:53,37.72,20.83,53.6,58,100,11.41,overcast clouds,0.007086614173228346,0.0
338,Tacuarembo,UY,2020-04-06 00:29:26,-31.73,-55.98,67.37,53,93,4.7,overcast clouds,0.007086614173228346,0.0
339,Terrace Bay,CA,2020-04-06 00:33:53,48.78,-87.1,31.64,85,32,4.9,scattered clouds,0.007086614173228346,0.0
340,Santo Antonio Do Ica,BR,2020-04-06 00:33:54,-3.1,-67.94,77.27,91,87,1.72,light rain,0.06023622047244095,0.0
341,Omboue,GA,2020-04-06 00:33:54,-1.57,9.26,79.83,90,52,6.71,broken clouds,0.06023622047244095,0.0
342,Orlik,RU,2020-04-06 00:33:54,52.52,99.83,19.98,72,52,3.27,broken clouds,0.06023622047244095,0.0
343,Taltal,CL,2020-04-06 00:33:54,-25.4,-70.48,64.96,72,0,1.36,clear sky,0.06023622047244095,0.0
344,Nouadhibou,MR,2020-04-06 00:33:54,20.93,-17.03,68.0,77,0,18.34,clear sky,0.06023622047244095,0.0
345,Cololaca,HN,2020-04-06 00:33:54,14.3,-88.88,80.31,50,66,1.39,light rain,0.07322834645669292,0.0
346,Kibre Mengist,ET,2020-04-06 00:33:54,5.88,38.98,55.02,56,1,2.93,clear sky,0.07322834645669292,0.0
347,Khromtau,KZ,2020-04-06 00:33:55,50.25,58.43,40.05,77,71,14.45,light rain,0.00826771653543307,0.0
348,Humaita,BR,2020-04-06 00:33:55,-7.51,-63.02,78.85,84,99,2.26,light rain,0.011811023622047244,0.0
349,Montecorvino Rovella,IT,2020-04-06 00:33:55,40.69,14.98,57.2,47,60,6.93,broken clouds,0.011811023622047244,0.0
350,Husavik,IS,2020-04-06 00:33:55,66.04,-17.34,32.0,86,90,6.93,light snow,0.011811023622047244,0.0
351,Camabatela,AO,2020-04-06 00:33:55,-8.19,15.38,65.55,71,68,3.31,broken clouds,0.011811023622047244,0.0
352,Ponta Do Sol,PT,2020-04-06 00:33:55,32.67,-17.1,66.2,82,75,2.24,broken clouds,0.011811023622047244,0.0
353,Bogande,BF,2020-04-06 00:33:55,12.97,-0.14,85.93,12,1,4.76,clear sky,0.011811023622047244,0.0
354,Lubao,PH,2020-04-06 00:33:55,14.92,120.55,84.2,58,40,4.7,scattered clouds,0.011811023622047244,0.0
355,Paamiut,GL,2020-04-06 00:21:04,61.99,-49.67,26.01,89,100,7.74,overcast clouds,0.011811023622047244,0.0
356,Peringat,MY,2020-04-06 00:33:56,6.03,102.28,77.0,94,20,3.36,few clouds,0.011811023622047244,0.0
357,Ouesso,CG,2020-04-06 00:33:56,1.61,16.05,72.55,87,21,0.54,moderate rain,0.12716535433070866,0.0
358,Road Town,VG,2020-04-06 00:33:25,18.42,-64.62,80.6,74,40,8.61,scattered clouds,0.12716535433070866,0.0
359,Alofi,NU,2020-04-06 00:33:56,-19.06,-169.92,84.2,70,98,13.87,light rain,0.07992125984251969,0.0
360,Emerald,AU,2020-04-06 00:33:56,-23.53,148.17,77.0,33,0,14.99,clear sky,0.07992125984251969,0.0
361,Talnakh,RU,2020-04-06 00:33:05,69.49,88.4,30.2,100,75,17.9,light shower snow,0.07992125984251969,0.0
362,Dikson,RU,2020-04-06 00:33:57,73.51,80.55,18.95,97,99,10.09,light snow,0.07992125984251969,0.009448818897637795
363,Mosetse,BW,2020-04-06 00:30:56,-20.75,26.65,66.83,39,0,4.12,clear sky,0.07992125984251969,0.0
364,Tura,IN,2020-04-06 00:33:57,25.52,90.22,67.08,25,0,3.29,clear sky,0.07992125984251969,0.0
365,Hattiesburg,US,2020-04-06 00:33:45,31.33,-89.29,75.2,60,1,1.52,clear sky,0.07992125984251969,0.0
366,Altea,ES,2020-04-06 00:31:43,38.6,-0.05,55.99,82,7,3.36,clear sky,0.07992125984251969,0.0
367,Traverse City,US,2020-04-06 00:33:57,44.76,-85.62,43.0,64,1,8.05,clear sky,0.07992125984251969,0.0
368,Hefei,CN,2020-04-06 00:33:57,31.86,117.28,57.99,66,99,6.71,overcast clouds,0.07992125984251969,0.0
369,Corrente,BR,2020-04-06 00:33:58,-3.74,-43.34,75.79,94,100,3.44,light rain,0.00984251968503937,0.0
370,Papetoai,PF,2020-04-06 00:33:58,-17.5,-149.87,87.8,62,9,17.22,clear sky,0.00984251968503937,0.0
371,Goderich,CA,2020-04-06 00:33:58,43.75,-81.72,36.0,84,27,8.23,scattered clouds,0.00984251968503937,0.0
372,Phangnga,TH,2020-04-06 00:33:58,8.45,98.53,77.0,94,20,2.24,few clouds,0.00984251968503937,0.0
373,Hualmay,PE,2020-04-06 00:33:58,-11.1,-77.61,73.09,74,6,6.4,clear sky,0.00984251968503937,0.0
374,Nokaneng,BW,2020-04-06 00:33:58,-19.67,22.27,68.97,36,0,4.05,clear sky,0.00984251968503937,0.0
375,Isangel,VU,2020-04-06 00:33:58,-19.55,169.27,78.33,87,100,16.53,moderate rain,0.14724409448818898,0.0
376,Nyurba,RU,2020-04-06 00:33:58,63.28,118.33,31.86,93,28,9.91,scattered clouds,0.14724409448818898,0.0
377,Villefranche-De-Rouergue,FR,2020-04-06 00:33:59,44.33,2.0,50.0,39,0,14.99,clear sky,0.14724409448818898,0.0
378,Gemena,CD,2020-04-06 00:33:59,3.25,19.77,70.39,86,96,1.01,light rain,0.03385826771653543,0.0
379,Buraydah,SA,2020-04-06 00:33:59,26.33,43.98,71.6,78,40,10.29,thunderstorm,0.03385826771653543,0.0
380,Ojinaga,MX,2020-04-06 00:33:59,29.57,-104.42,84.2,21,1,10.6,clear sky,0.03385826771653543,0.0
381,Bac Lieu,VN,2020-04-06 00:33:59,9.29,105.72,82.26,77,86,14.72,overcast clouds,0.03385826771653543,0.0
382,Kismayo,SO,2020-04-06 00:34:00,-0.36,42.55,82.2,76,72,10.0,broken clouds,0.03385826771653543,0.0
383,Briceni,MD,2020-04-06 00:34:00,48.36,27.7,37.63,65,0,5.44,clear sky,0.03385826771653543,0.0
384,Icatu,BR,2020-04-06 00:34:00,-2.78,-44.07,80.6,94,20,6.93,few clouds,0.03385826771653543,0.0
385,Toora-Khem,RU,2020-04-06 00:34:00,52.47,96.11,28.72,71,97,2.37,light snow,0.03385826771653543,0.03307086614173228
386,Asau,RO,2020-04-06 00:34:00,46.43,26.4,36.0,55,0,8.05,clear sky,0.03385826771653543,0.0
387,Tekirdag,TR,2020-04-06 00:32:00,40.98,27.51,44.6,75,75,34.45,broken clouds,0.03385826771653543,0.0
388,Tromso,NO,2020-04-06 00:34:01,69.65,18.96,19.4,79,90,3.36,light snow,0.03385826771653543,0.004330708661417323
389,Los Andes,CL,2020-04-06 00:34:01,-32.83,-70.6,68.0,40,1,9.17,clear sky,0.03385826771653543,0.0
390,San Patricio,MX,2020-04-06 00:34:01,19.22,-104.7,86.0,74,40,11.41,scattered clouds,0.03385826771653543,0.0
391,Chapais,CA,2020-04-06 00:34:01,49.78,-74.85,28.4,74,90,13.87,overcast clouds,0.03385826771653543,0.0
392,Merauke,ID,2020-04-06 00:34:01,-8.47,140.33,83.08,75,94,7.25,light rain,0.01299212598425197,0.0
393,Graaff-Reinet,ZA,2020-04-06 00:34:01,-32.25,24.53,64.0,27,38,1.01,scattered clouds,0.01299212598425197,0.0
394,Siavonga,ZM,2020-04-06 00:34:01,-16.54,28.71,72.32,60,34,3.27,scattered clouds,0.01299212598425197,0.0
395,Udachnyy,RU,2020-04-06 00:34:01,66.42,112.4,28.4,63,96,8.95,overcast clouds,0.01299212598425197,0.0
396,Saint Pete Beach,US,2020-04-06 00:34:02,27.73,-82.74,66.2,93,90,17.22,light rain,0.01299212598425197,0.0
397,Coro,VE,2020-04-06 00:34:02,11.4,-69.67,79.79,81,100,18.92,overcast clouds,0.01299212598425197,0.0
398,Kaniama,CD,2020-04-06 00:34:02,-7.57,24.18,67.26,72,69,2.44,light rain,0.01732283464566929,0.0
399,Pasuruan,ID,2020-04-06 00:34:03,-7.65,112.91,82.02,73,87,4.27,light rain,0.021259842519685043,0.0
400,Dingle,PH,2020-04-06 00:34:05,11.0,122.67,80.11,70,75,9.6,broken clouds,0.021259842519685043,0.0
401,Dryden,CA,2020-04-06 00:29:45,49.78,-92.75,44.6,39,90,2.24,overcast clouds,0.021259842519685043,0.0
402,Portland,US,2020-04-06 00:29:45,45.52,-122.68,64.4,42,20,8.05,few clouds,0.021259842519685043,0.0
403,Prata,BR,2020-04-06 00:34:05,-19.31,-48.92,72.9,73,8,5.03,clear sky,0.021259842519685043,0.0
404,Bobrovka,RU,2020-04-06 00:24:25,54.05,61.75,39.04,78,98,9.42,overcast clouds,0.021259842519685043,0.0
405,Kahului,US,2020-04-06 00:34:05,20.89,-156.47,80.6,74,75,9.17,moderate rain,0.021259842519685043,0.0
406,Yashkino,RU,2020-04-06 00:32:07,55.87,85.43,32.0,93,10,11.18,clear sky,0.021259842519685043,0.0
407,Clyde River,CA,2020-04-06 00:34:06,70.47,-68.59,8.6,60,40,19.46,scattered clouds,0.021259842519685043,0.0
408,Sur,OM,2020-04-06 00:34:06,22.57,59.53,85.44,32,0,8.55,clear sky,0.021259842519685043,0.0
409,Iskateley,RU,2020-04-06 00:34:07,67.68,53.15,17.87,97,83,6.6,light snow,0.021259842519685043,0.022440944881889763
410,Kroya,ID,2020-04-06 00:34:07,-7.63,109.25,80.55,81,66,2.15,light rain,0.07755905511811025,0.0
411,Mujiayingzi,CN,2020-04-06 00:34:07,42.12,118.78,48.58,32,0,3.4,clear sky,0.07755905511811025,0.0
412,Kovur,IN,2020-04-06 00:34:08,14.48,79.98,77.59,91,29,11.01,scattered clouds,0.07755905511811025,0.0
413,Phan Thiet,VN,2020-04-06 00:31:13,10.93,108.1,78.64,75,31,9.4,scattered clouds,0.07755905511811025,0.0
414,Havre-Saint-Pierre,CA,2020-04-06 00:34:08,50.23,-63.6,32.0,96,90,4.7,overcast clouds,0.07755905511811025,0.0
415,Kijang,KR,2020-04-06 00:34:08,35.24,129.21,48.2,49,0,4.7,clear sky,0.07755905511811025,0.0
416,Hirara,JP,2020-04-06 00:34:08,24.8,125.28,68.0,64,75,5.82,broken clouds,0.07755905511811025,0.0
417,Luau,AO,2020-04-06 00:34:08,-10.71,22.22,65.64,71,97,3.02,light rain,0.041732283464566935,0.0
418,Vanavara,RU,2020-04-06 00:34:08,60.34,102.28,26.51,92,39,4.74,scattered clouds,0.041732283464566935,0.0
419,Sai Buri,TH,2020-04-06 00:34:09,6.7,101.62,77.0,94,20,5.82,few clouds,0.041732283464566935,0.0
420,Port-Cartier,CA,2020-04-06 00:34:09,50.03,-66.87,34.0,86,90,4.7,light rain,0.041732283464566935,0.0
421,Basar,IN,2020-04-06 00:34:09,27.98,94.67,64.4,82,75,3.65,mist,0.041732283464566935,0.0
422,Iquique,CL,2020-04-06 00:34:09,-20.22,-70.14,73.4,60,14,11.41,few clouds,0.041732283464566935,0.0
423,Sabzevar,IR,2020-04-06 00:30:18,36.21,57.68,46.81,54,27,3.24,scattered clouds,0.041732283464566935,0.0
424,Port Macquarie,AU,2020-04-06 00:34:09,-31.43,152.92,75.0,49,0,9.17,clear sky,0.041732283464566935,0.0
425,Zelenoborskiy,RU,2020-04-06 00:34:09,66.84,32.36,15.62,92,19,6.06,few clouds,0.041732283464566935,0.0
426,Makat,KZ,2020-04-06 00:34:09,47.65,53.35,48.27,83,80,12.57,light rain,0.019291338582677165,0.0
427,Caceres,ES,2020-04-06 00:34:10,39.52,-6.37,57.0,91,96,4.0,light rain,0.020472440944881893,0.0
428,Cabo San Lucas,MX,2020-04-06 00:30:02,22.89,-109.91,82.0,29,40,5.82,scattered clouds,0.020472440944881893,0.0
429,Hun,LY,2020-04-06 00:34:00,29.13,15.95,57.2,46,1,6.91,clear sky,0.020472440944881893,0.0
430,Mae Hong Son,TH,2020-04-06 00:34:11,19.3,97.97,73.4,60,20,1.07,haze,0.020472440944881893,0.0
431,Dzhubga,RU,2020-04-06 00:34:11,44.32,38.7,46.69,54,33,22.21,scattered clouds,0.020472440944881893,0.0
432,Vallenar,CL,2020-04-06 00:34:11,-28.57,-70.76,64.35,54,5,0.2,clear sky,0.020472440944881893,0.0
433,Saint Anthony,US,2020-04-06 00:32:03,45.02,-93.22,55.0,34,40,9.17,scattered clouds,0.020472440944881893,0.0
434,Karonga,MW,2020-04-06 00:34:13,-9.93,33.93,71.06,72,0,2.66,clear sky,0.020472440944881893,0.0
435,La Rioja,ES,2020-04-06 00:34:13,42.25,-2.5,55.4,71,20,10.29,few clouds,0.020472440944881893,0.0
436,Juneau,US,2020-04-06 00:30:37,58.3,-134.42,41.0,52,90,8.05,overcast clouds,0.020472440944881893,0.0
437,Minamata,JP,2020-04-06 00:34:13,32.22,130.4,53.6,50,20,8.05,few clouds,0.020472440944881893,0.0
438,Fort Saint James,CA,2020-04-06 00:34:13,54.43,-124.25,32.45,66,59,2.28,light snow,0.020472440944881893,0.010236220472440946
439,Victoria,HK,2020-04-06 00:33:29,22.29,114.16,64.99,77,40,10.29,scattered clouds,0.020472440944881893,0.0
440,Pacific Grove,US,2020-04-06 00:31:40,36.62,-121.92,52.0,87,90,8.05,moderate rain,0.020472440944881893,0.0
441,Huarmey,PE,2020-04-06 00:34:14,-10.07,-78.15,75.74,70,14,6.85,few clouds,0.020472440944881893,0.0
442,Kazachinskoye,RU,2020-04-06 00:34:14,57.7,93.28,29.61,92,0,10.0,clear sky,0.020472440944881893,0.0
443,Bima,ID,2020-04-06 00:34:14,-8.47,118.72,81.72,78,89,1.43,overcast clouds,0.020472440944881893,0.0
444,Deputatskiy,RU,2020-04-06 00:34:14,69.3,139.9,10.36,88,15,6.33,few clouds,0.020472440944881893,0.0
445,Sarkand,KZ,2020-04-06 00:34:14,45.41,79.92,51.49,32,53,4.72,broken clouds,0.020472440944881893,0.0
446,Gotsu,JP,2020-04-06 00:34:14,35.0,132.22,50.0,57,20,4.7,few clouds,0.020472440944881893,0.0
447,Hofn,IS,2020-04-06 00:34:14,64.25,-15.21,45.63,87,100,18.99,moderate rain,0.2732283464566929,0.0
448,Pilar,BR,2020-04-06 00:34:14,-9.6,-35.96,78.8,94,40,4.7,scattered clouds,0.2732283464566929,0.0
449,Pokhvistnevo,RU,2020-04-06 00:34:15,53.65,52.13,31.89,85,16,3.58,few clouds,0.2732283464566929,0.0
450,Arman,RU,2020-04-06 00:32:05,59.7,150.17,20.12,94,100,5.79,light snow,0.2732283464566929,0.009448818897637795
451,Margate,GB,2020-04-06 00:34:15,51.38,1.39,57.0,54,0,11.41,clear sky,0.2732283464566929,0.0
452,Pangkalanbuun,ID,2020-04-06 00:34:15,-2.68,111.62,79.43,85,95,3.42,overcast clouds,0.2732283464566929,0.0
453,Oroquieta,PH,2020-04-06 00:34:02,8.49,123.8,81.32,76,67,9.17,broken clouds,0.2732283464566929,0.0
454,Lata,PT,2020-04-06 00:34:15,40.16,-8.33,57.2,100,75,4.7,broken clouds,0.2732283464566929,0.0
455,Boundiali,CI,2020-04-06 00:34:15,9.52,-6.49,85.71,32,29,4.7,scattered clouds,0.2732283464566929,0.0
456,Rotenburg,DE,2020-04-06 00:34:15,53.12,9.4,50.0,74,0,13.87,clear sky,0.2732283464566929,0.0
457,Koungou,YT,2020-04-06 00:34:16,-12.73,45.2,80.6,78,20,4.7,few clouds,0.2732283464566929,0.0
458,Mao,ES,2020-04-06 00:34:16,39.89,4.27,50.0,87,74,4.7,broken clouds,0.2732283464566929,0.0
459,Thunder Bay,CA,2020-04-06 00:33:21,48.4,-89.32,36.0,64,20,10.29,few clouds,0.2732283464566929,0.0
460,Eregli,TR,2020-04-06 00:34:16,37.51,34.05,48.13,48,2,2.95,clear sky,0.2732283464566929,0.0
461,Catamarca,AR,2020-04-06 00:30:07,-28.47,-65.79,59.0,87,17,1.99,few clouds,0.2732283464566929,0.0
462,Nabire,ID,2020-04-06 00:34:16,-3.37,135.48,85.32,67,69,1.61,broken clouds,0.2732283464566929,0.0
463,Morro Bay,US,2020-04-06 00:34:16,35.37,-120.85,55.4,93,90,11.41,light rain,0.2732283464566929,0.0
464,Avera,US,2020-04-06 00:34:16,33.19,-82.53,73.4,64,1,4.7,clear sky,0.2732283464566929,0.0
465,Malanje,AO,2020-04-06 00:34:17,-9.54,16.34,64.09,71,89,2.89,overcast clouds,0.2732283464566929,0.0
466,Kinablangan,PH,2020-04-06 00:34:17,7.69,126.55,81.48,70,83,5.06,light rain,0.01968503937007874,0.0
467,Xining,CN,2020-04-06 00:34:17,36.62,101.77,39.09,28,56,1.5,broken clouds,0.01968503937007874,0.0
468,Ekhabi,RU,2020-04-06 00:34:17,53.51,142.97,28.51,95,1,9.15,clear sky,0.01968503937007874,0.0
469,Manono,CD,2020-04-06 00:34:17,-7.3,27.42,69.87,78,97,1.9,overcast clouds,0.01968503937007874,0.0
470,Naryan-Mar,RU,2020-04-06 00:34:17,67.67,53.09,18.16,97,85,6.91,light snow,0.01968503937007874,0.024015748031496063
471,Maridi,SS,2020-04-06 00:34:17,4.92,29.47,67.51,76,100,6.4,overcast clouds,0.01968503937007874,0.0
472,Chumikan,RU,2020-04-06 00:34:17,54.72,135.31,31.95,95,100,2.86,light snow,0.01968503937007874,0.01732283464566929
473,Samfya,ZM,2020-04-06 00:34:17,-11.36,29.56,62.51,63,18,3.44,few clouds,0.01968503937007874,0.0
474,Durango,MX,2020-04-06 00:34:18,24.83,-104.83,77.67,9,88,12.93,overcast clouds,0.01968503937007874,0.0
475,Berlevag,NO,2020-04-06 00:34:18,70.86,29.09,28.4,68,75,11.41,broken clouds,0.01968503937007874,0.0
476,Tierralta,CO,2020-04-06 00:34:18,8.17,-76.06,81.0,81,99,7.49,light rain,0.08425196850393701,0.0
477,Makokou,GA,2020-04-06 00:34:18,0.57,12.86,72.57,81,44,2.28,light rain,0.016929133858267716,0.0
478,Rocha,UY,2020-04-06 00:34:18,-34.48,-54.33,67.37,64,100,4.74,overcast clouds,0.016929133858267716,0.0
479,Zaros,GR,2020-04-06 00:34:18,35.13,24.9,57.99,82,75,16.11,broken clouds,0.016929133858267716,0.0
480,Goundam,ML,2020-04-06 00:34:19,16.41,-3.67,85.42,12,0,11.52,clear sky,0.016929133858267716,0.0
481,Half Moon Bay,US,2020-04-06 00:34:19,37.46,-122.43,54.0,66,20,8.05,few clouds,0.016929133858267716,0.0
482,Yerbogachen,RU,2020-04-06 00:34:19,61.28,108.01,26.74,94,65,8.57,broken clouds,0.016929133858267716,0.0
483,Ahipara,NZ,2020-04-06 00:34:19,-35.17,173.17,66.06,60,96,9.75,overcast clouds,0.016929133858267716,0.0
484,Payson,US,2020-04-06 00:34:19,40.04,-111.73,64.4,29,75,17.22,broken clouds,0.016929133858267716,0.0
485,Jiangyou,CN,2020-04-06 00:34:19,31.77,104.72,52.7,68,100,1.74,overcast clouds,0.016929133858267716,0.0
486,Cockburn Town,TC,2020-04-06 00:30:18,21.46,-71.14,75.92,64,0,11.86,clear sky,0.016929133858267716,0.0
487,Bhakkar,PK,2020-04-06 00:29:33,31.63,71.07,67.57,63,0,5.19,clear sky,0.016929133858267716,0.0
488,Tenenkou,ML,2020-04-06 00:34:20,14.46,-4.92,85.21,12,0,7.78,clear sky,0.016929133858267716,0.0
489,Yingkou,CN,2020-04-06 00:34:20,40.66,122.23,47.59,47,0,5.7,clear sky,0.016929133858267716,0.0
490,Ozinki,RU,2020-04-06 00:34:20,51.18,49.68,36.46,78,99,2.91,light snow,0.016929133858267716,0.012598425196850395
491,Sioux Lookout,CA,2020-04-06 00:34:20,50.1,-91.92,44.6,48,75,3.36,broken clouds,0.016929133858267716,0.0
492,Muravlenko,RU,2020-04-06 00:34:20,63.79,74.52,33.04,96,100,7.61,light rain,0.11338582677165354,0.0
493,Tecoanapa,MX,2020-04-06 00:34:20,16.52,-98.75,82.96,60,1,7.4,clear sky,0.11338582677165354,0.0
494,Leningradskiy,RU,2020-04-06 00:34:20,69.38,178.42,-0.02,88,100,17.13,overcast clouds,0.11338582677165354,0.0
495,Gimli,CA,2020-04-06 00:34:21,50.63,-96.99,29.77,95,67,3.62,broken clouds,0.11338582677165354,0.0
496,Smithers,CA,2020-04-06 00:34:00,54.78,-127.17,39.2,25,5,3.36,clear sky,0.11338582677165354,0.0
497,Hovd,MN,2020-04-06 00:34:21,48.01,91.64,29.26,47,0,1.59,clear sky,0.11338582677165354,0.0
498,Madison,US,2020-04-06 00:30:54,34.73,-86.57,75.2,43,1,4.7,clear sky,0.11338582677165354,0.0
499,Sobolevo,RU,2020-04-06 00:34:21,54.43,31.9,31.57,85,6,5.91,clear sky,0.11338582677165354,0.0
500,Kanina,CD,2020-04-06 00:34:21,-10.73,25.47,60.13,63,86,2.15,overcast clouds,0.11338582677165354,0.0
501,Dangriga,BZ,2020-04-06 00:34:21,16.97,-88.23,82.4,74,20,9.17,few clouds,0.11338582677165354,0.0
502,Kolokani,ML,2020-04-06 00:34:21,13.57,-8.03,87.24,11,0,5.41,clear sky,0.11338582677165354,0.0
503,Neyshabur,IR,2020-04-06 00:34:22,36.21,58.8,44.13,52,81,3.04,broken clouds,0.11338582677165354,0.0
504,Turangi,NZ,2020-04-06 00:34:22,-39.0,175.93,61.09,37,1,4.32,clear sky,0.11338582677165354,0.0
505,Dwarka,IN,2020-04-06 00:34:22,22.24,68.97,77.79,80,0,9.46,clear sky,0.11338582677165354,0.0
506,Lincoln,US,2020-04-06 00:29:29,40.8,-96.67,60.8,51,1,13.87,clear sky,0.11338582677165354,0.0
507,Ouegoa,NC,2020-04-06 00:34:22,-20.35,164.43,82.83,65,100,15.48,overcast clouds,0.11338582677165354,0.0
508,Zhongxing,CN,2020-04-06 00:34:22,33.7,118.68,48.51,56,100,6.49,overcast clouds,0.11338582677165354,0.0
509,Boulsa,BF,2020-04-06 00:34:22,12.67,-0.58,86.95,11,16,4.94,few clouds,0.11338582677165354,0.0
510,Anguillara Sabazia,IT,2020-04-06 00:34:23,42.09,12.28,57.99,46,74,8.05,broken clouds,0.11338582677165354,0.0
511,Aquiraz,BR,2020-04-06 00:24:25,-3.9,-38.39,84.0,88,40,4.7,scattered clouds,0.11338582677165354,0.0
512,Mehran,IR,2020-04-06 00:34:23,33.12,46.16,50.0,37,45,6.93,scattered clouds,0.11338582677165354,0.0
513,Aykhal,RU,2020-04-06 00:34:24,66.0,111.5,28.4,63,73,8.95,broken clouds,0.11338582677165354,0.0
514,Ilo,PE,2020-04-06 00:34:25,-17.64,-71.34,72.9,76,3,2.75,clear sky,0.11338582677165354,0.0
515,Mazyr,BY,2020-04-06 00:34:25,52.05,29.25,35.91,77,33,4.07,scattered clouds,0.11338582677165354,0.0
516,Hays,US,2020-04-06 00:34:26,30.05,-98.03,68.0,82,90,5.82,overcast clouds,0.11338582677165354,0.0
517,Bereda,ES,2020-04-06 00:34:26,43.27,-7.54,52.0,93,57,6.93,broken clouds,0.11338582677165354,0.0
518,Rawson,AR,2020-04-06 00:34:26,-43.3,-65.1,53.31,43,18,10.54,few clouds,0.11338582677165354,0.0
519,Haapiti,PF,2020-04-06 00:34:26,-17.57,-149.87,87.8,62,8,17.22,light rain,0.005905511811023622,0.0
520,Puerto Penasco,MX,2020-04-06 00:31:52,31.32,-113.53,66.0,76,36,7.0,scattered clouds,0.005905511811023622,0.0
521,Limon,CR,2020-04-06 00:34:26,10.0,-83.03,84.2,74,75,11.41,broken clouds,0.005905511811023622,0.0
522,Minden,DE,2020-04-06 00:34:27,52.28,8.92,50.0,52,0,5.82,clear sky,0.005905511811023622,0.0
523,Mogadishu,SO,2020-04-06 00:34:27,2.04,45.34,82.18,77,27,13.58,scattered clouds,0.005905511811023622,0.0
524,Mitsamiouli,KM,2020-04-06 00:34:27,-11.38,43.28,83.26,66,63,4.18,broken clouds,0.005905511811023622,0.0
525,Pula,HR,2020-04-06 00:33:07,44.87,13.85,57.2,41,0,12.75,clear sky,0.005905511811023622,0.0
526,Mayo,US,2020-04-06 00:34:27,38.89,-76.51,66.0,62,75,6.93,broken clouds,0.005905511811023622,0.0
527,Pochutla,MX,2020-04-06 00:34:27,15.74,-96.47,84.2,66,40,6.49,scattered clouds,0.005905511811023622,0.0
528,Kiunga,PG,2020-04-06 00:34:27,-6.12,141.29,84.06,75,62,1.32,light rain,0.03582677165354331,0.0
529,Suileng,CN,2020-04-06 00:34:27,47.25,127.08,40.41,51,66,5.77,broken clouds,0.03582677165354331,0.0
530,Rorvik,NO,2020-04-06 00:34:27,64.86,11.24,37.6,81,100,15.84,overcast clouds,0.03582677165354331,0.0
531,Gisborne,NZ,2020-04-06 00:29:52,-38.65,178.0,62.1,61,63,5.79,light rain,0.011023622047244096,0.0
532,Kochubey,RU,2020-04-06 00:34:28,44.39,46.58,52.45,60,100,8.72,overcast clouds,0.011023622047244096,0.0
533,Dubrovnik,HR,2020-04-06 00:34:28,42.65,18.09,62.6,24,50,10.29,scattered clouds,0.011023622047244096,0.0
534,Segezha,RU,2020-04-06 00:34:28,63.74,34.32,20.16,94,11,8.21,few clouds,0.011023622047244096,0.0
535,Nabisar,PK,2020-04-06 00:34:28,25.07,69.64,77.81,50,7,6.49,clear sky,0.011023622047244096,0.0
536,Sorland,NO,2020-04-06 00:34:28,67.67,12.69,32.86,85,100,20.29,overcast clouds,0.011023622047244096,0.0
537,Kaz,RU,2020-04-06 00:34:28,52.91,87.31,31.46,81,0,5.21,clear sky,0.011023622047244096,0.0
538,Hede,CN,2020-04-06 00:34:28,33.77,120.25,46.87,59,95,2.66,overcast clouds,0.011023622047244096,0.0
539,Shihezi,CN,2020-04-06 00:34:29,44.3,86.03,54.59,31,1,5.66,clear sky,0.011023622047244096,0.0
540,Bairiki,KI,2020-04-06 00:34:29,1.33,172.98,84.2,79,75,5.82,broken clouds,0.011023622047244096,0.0
541,Barao De Melgaco,BR,2020-04-06 00:34:29,-16.19,-55.97,82.4,74,61,4.7,light rain,0.006299212598425198,0.0
542,Hutchinson,US,2020-04-06 00:34:09,38.06,-97.93,60.8,62,90,14.99,overcast clouds,0.006299212598425198,0.0
543,Waingapu,ID,2020-04-06 00:34:29,-9.66,120.26,82.49,71,64,1.63,broken clouds,0.006299212598425198,0.0
544,Serebryanyy Bor,RU,2020-04-06 00:34:29,56.8,124.8,18.09,89,84,2.62,broken clouds,0.006299212598425198,0.0
545,Poum,NC,2020-04-06 00:34:29,-20.23,164.02,80.33,75,100,18.81,overcast clouds,0.006299212598425198,0.0
546,Hamilton,US,2020-04-06 00:30:24,39.18,-84.53,55.99,76,90,8.05,overcast clouds,0.006299212598425198,0.0
547,Westerland,DE,2020-04-06 00:34:30,54.91,8.3,51.01,73,0,5.99,clear sky,0.006299212598425198,0.0
548,Maniitsoq,GL,2020-04-06 00:34:30,65.42,-52.9,20.35,87,1,6.11,clear sky,0.006299212598425198,0.0
549,Ryotsu,JP,2020-04-06 00:34:30,38.08,138.43,46.4,61,40,28.86,scattered clouds,0.006299212598425198,0.0
550,Prince Rupert,CA,2020-04-06 00:30:59,54.32,-130.32,44.6,52,1,10.29,clear sky,0.006299212598425198,0.0
551,Atyrau,KZ,2020-04-06 00:34:30,47.12,51.88,44.6,93,40,6.71,mist,0.006299212598425198,0.0
552,Kaseda,JP,2020-04-06 00:34:30,31.42,130.32,53.6,50,20,8.05,few clouds,0.006299212598425198,0.0
553,Susanville,US,2020-04-06 00:32:48,40.42,-120.65,39.99,57,90,9.17,overcast clouds,0.006299212598425198,0.0
554,Kendari,ID,2020-04-06 00:34:30,-3.94,122.5,80.78,80,50,2.93,scattered clouds,0.006299212598425198,0.0
555,Harrisonburg,US,2020-04-06 00:30:16,38.45,-78.87,66.2,59,90,4.7,overcast clouds,0.006299212598425198,0.0
556,Auki,SB,2020-04-06 00:34:31,-8.77,160.7,82.76,81,97,13.98,light rain,0.07440944881889763,0.0
557,Sistranda,NO,2020-04-06 00:34:31,63.73,8.83,41.0,75,100,17.22,overcast clouds,0.07440944881889763,0.0
558,Xichang,CN,2020-04-06 00:34:31,27.9,102.26,51.06,41,88,2.68,overcast clouds,0.07440944881889763,0.0
559,Coihaique,CL,2020-04-06 00:33:31,-45.58,-72.07,41.0,71,40,5.75,scattered clouds,0.07440944881889763,0.0
560,Urumqi,CN,2020-04-06 00:34:32,43.8,87.6,53.6,30,7,8.95,clear sky,0.07440944881889763,0.0
561,Vvedenskoye,RU,2020-04-06 00:34:32,55.48,65.08,35.46,89,70,5.95,light rain,0.011023622047244096,0.0
